City_ID,City,Lat,Lng,Max Temp,Humidity,Cloudiness,Wind Speed,Country,Date
0,jamestown,42.097,-79.2353,23.02,61,40,3.0,US,1675193438
1,mataura,-46.1927,168.8643,60.3,100,100,1.14,NZ,1675193439
2,tuatapere,-46.1333,167.6833,61.54,96,100,3.11,NZ,1675193439
3,lorengau,-2.0226,147.2712,80.17,80,100,7.49,PG,1675193439
4,thinadhoo,0.5333,72.9333,81.07,75,37,9.93,MV,1675193440
5,vestmannaeyjar,63.4427,-20.2734,30.65,73,100,23.64,IS,1675193440
6,linping,30.4225,120.2972,40.95,59,0,1.99,CN,1675193440
7,ushuaia,-54.8,-68.3,56.86,54,75,13.8,AR,1675193227
8,veraval,20.9,70.3667,68.58,40,16,14.38,IN,1675193441
9,cidreira,-30.1811,-50.2056,79.12,78,9,7.85,BR,1675193441
10,cockburn town,21.4612,-71.1419,80.56,57,40,16.11,TC,1675193441
11,magadan,59.5667,150.8,6.53,95,100,8.32,RU,1675193442
12,panama city,8.9936,-79.5197,91.17,46,40,18.41,PA,1675193442
13,bredasdorp,-34.5322,20.0403,68.34,90,30,5.17,ZA,1675193356
14,arraial do cabo,-22.9661,-42.0278,84.16,61,0,23.02,BR,1675193443
15,punta arenas,-53.15,-70.9167,60.91,48,75,24.16,CL,1675193443
16,northam,51.0333,-4.2167,46.62,81,100,14.27,GB,1675193202
17,noumea,-22.2763,166.4572,79.0,99,69,3.53,NC,1675193444
18,qaanaaq,77.484,-69.3632,-5.78,48,87,8.66,GL,1675193444
19,atuona,-9.8,-139.0333,78.87,74,95,23.31,PF,1675193444
20,teluk nibung,3.001,99.8164,74.48,93,100,4.29,ID,1675193445
21,kodiak,57.79,-152.4072,38.71,87,100,8.05,US,1675193445
22,bluff,-46.6,168.3333,59.83,98,100,3.24,NZ,1675193446
23,neuquen,-38.9516,-68.0591,73.29,46,75,6.91,AR,1675193446
24,rikitea,-23.1203,-134.9692,78.91,74,14,11.59,PF,1675193446
25,lompoc,34.6391,-120.4579,62.64,54,0,4.61,US,1675193447
26,tuktoyaktuk,69.4541,-133.0374,-32.8,75,0,2.3,CA,1675193447
27,yellowknife,62.456,-114.3525,-25.08,75,75,8.05,CA,1675193447
28,ayorou,14.7308,0.9174,77.61,5,96,8.75,NE,1675193448
29,ust-ilimsk,58.0006,102.6619,0.75,98,100,4.12,RU,1675193448
30,rincon,32.296,-81.2354,73.36,76,75,8.05,US,1675193448
31,busselton,-33.65,115.3333,57.58,75,0,16.33,AU,1675193449
32,jalu,29.0331,21.5482,54.43,56,42,11.01,LY,1675193449
33,cayambe,0.05,-78.1333,65.46,68,94,2.98,EC,1675193449
34,ende,-8.8432,121.6623,79.03,88,100,2.84,ID,1675193449
35,hasaki,35.7333,140.8333,25.2,54,55,5.57,JP,1675193450
36,bonavista,48.6499,-53.1147,28.53,85,100,3.87,CA,1675193450
37,lastoursville,-0.8143,12.7287,77.86,69,59,0.51,GA,1675193450
38,mae sot,16.7167,98.5667,64.42,61,67,1.3,TH,1675193451
39,nikolskoye,59.7035,30.7861,30.09,95,100,7.09,RU,1675193451
40,isla vista,34.4133,-119.861,62.46,62,0,6.91,US,1675193451
41,bud,39.447,-86.1758,27.68,63,100,8.25,US,1675193452
42,doha,25.2867,51.5333,67.98,83,0,17.27,QA,1675193413
43,codrington,-38.2667,141.9667,58.86,81,100,8.48,AU,1675193452
44,hithadhoo,-0.6,73.0833,80.8,77,26,9.48,MV,1675193452
45,aklavik,68.2191,-135.0107,-32.13,100,20,2.8,CA,1675193453
46,isangel,-19.55,169.2667,80.55,78,100,2.73,VU,1675193453
47,mahebourg,-20.4081,57.7,79.09,89,40,6.91,MU,1675193453
48,aquiraz,-3.9014,-38.3911,84.29,75,97,9.37,BR,1675193454
49,alta floresta,-9.8756,-56.0861,80.96,78,31,1.3,BR,1675193454
50,kapaa,22.0752,-159.319,72.12,94,0,4.61,US,1675193454
51,ponta do sol,32.6667,-17.1,59.72,65,35,6.89,PT,1675193455
52,lichtenburg,-26.152,26.1597,62.35,82,70,4.41,ZA,1675193456
53,logrono,42.4667,-2.45,42.44,81,40,6.91,ES,1675193457
54,port alfred,-33.5906,26.891,69.19,93,23,5.01,ZA,1675193457
55,kalmunai,7.4167,81.8167,74.3,92,100,16.78,LK,1675193458
56,urumqi,43.801,87.6005,5.95,85,40,2.24,CN,1675193286
57,provideniya,64.3833,-173.3,15.42,100,68,2.17,RU,1675193458
58,mancio lima,-7.6142,-72.8958,89.67,74,75,0.0,BR,1675193458
59,lake city,30.1897,-82.6393,83.62,54,75,6.91,US,1675193459
60,beni mazar,28.4962,30.8029,54.01,47,0,8.68,EG,1675193459
61,kabrai,25.4167,80.0167,55.17,84,0,7.94,IN,1675193459
62,naryan-mar,67.6713,53.087,23.05,92,100,17.13,RU,1675193460
63,victoria,22.2855,114.1577,66.94,79,91,5.99,HK,1675193162
64,bambous virieux,-20.3428,57.7575,79.05,89,40,6.91,MU,1675193460
65,albany,42.6001,-73.9662,30.16,56,98,3.0,US,1675193461
66,college,64.8569,-147.8028,18.59,88,100,4.61,US,1675193461
67,santa isabel do rio negro,-0.4139,-65.0192,79.52,84,100,2.51,BR,1675193461
68,north platte,41.1239,-100.7654,12.09,62,0,14.97,US,1675193462
69,luganville,-15.5333,167.1667,78.06,83,91,2.08,VU,1675193462
70,araguacu,-12.9306,-49.8264,84.29,67,20,1.01,BR,1675193462
71,saint george,37.1041,-113.5841,37.44,33,0,8.05,US,1675193462
72,alofi,-19.0595,-169.9187,76.89,94,100,10.36,NU,1675193463
73,tuensang,26.2833,94.8333,57.16,64,94,2.28,IN,1675193463
74,saint anthony,45.0205,-93.218,10.06,60,75,10.36,US,1675193463
75,algiers,36.7525,3.042,44.42,87,20,3.44,DZ,1675193286
76,yumen,40.2833,97.2,19.35,38,55,2.1,CN,1675193464
77,khatanga,71.9667,102.5,-42.59,100,75,5.14,RU,1675193464
78,saint-philippe,-21.3585,55.7679,80.19,80,100,8.14,RE,1675193465
79,pisco,-13.7,-76.2167,78.85,69,0,12.66,PE,1675193465
80,ust-nera,64.5667,143.2,-13.04,99,100,3.83,RU,1675193465
81,esperance,-33.8667,121.9,62.06,74,100,14.07,AU,1675193466
82,chiredzi,-21.05,31.6667,77.05,67,25,10.98,ZW,1675193466
83,buloh kasap,2.5536,102.764,71.56,97,98,3.56,MY,1675193467
84,hobart,-42.8794,147.3294,58.86,80,20,6.91,AU,1675193467
85,ukiah,39.1502,-123.2078,61.93,23,67,2.21,US,1675193467
86,surt,31.2089,16.5887,59.04,62,61,22.77,LY,1675193467
87,opuwo,-18.0607,13.84,65.8,84,98,3.29,NA,1675193468
88,hilo,19.7297,-155.09,77.29,86,40,5.75,US,1675193468
89,butaritari,3.0707,172.7902,80.1,78,43,19.35,KI,1675193468
90,tautira,-17.7333,-149.15,80.58,76,25,15.28,PF,1675193469
91,maniitsoq,65.4167,-52.9,3.79,73,100,8.88,GL,1675193469
92,saldanha,-33.0117,17.9442,64.45,96,22,17.67,ZA,1675193469
93,agbor,6.2518,6.1934,82.74,66,81,7.72,NG,1675193470
94,moroni,-11.7022,43.2551,79.56,82,7,1.61,KM,1675193470
95,hamilton,39.1834,-84.5333,28.72,73,100,5.75,US,1675193470
96,puerto ayora,-0.7393,-90.3518,84.16,90,65,4.0,EC,1675193471
97,okhotsk,59.3833,143.3,-0.71,97,100,11.16,RU,1675193471
98,zambezi,-13.5432,23.1047,63.64,97,100,5.64,ZM,1675193367
99,walvis bay,-22.9575,14.5053,66.09,88,7,10.36,NA,1675193472
100,alekseyevka,50.6309,38.6903,23.88,91,83,4.23,RU,1675193196
101,belyy yar,53.6039,91.3903,0.86,81,100,4.47,RU,1675193473
102,vaini,-21.2,-175.2,78.96,94,75,10.36,TO,1675193473
103,constitucion,-35.3333,-72.4167,67.28,55,51,14.88,CL,1675193473
104,haines junction,60.7522,-137.5108,21.06,94,99,1.41,CA,1675193473
105,beatrice,40.2681,-96.747,23.09,46,0,10.36,US,1675193474
106,lebu,-37.6167,-73.65,61.61,66,0,18.66,CL,1675193474
107,chokurdakh,70.6333,147.9167,1.02,98,99,2.28,RU,1675193474
108,california city,35.1258,-117.9859,52.34,19,0,8.05,US,1675193196
109,gigmoto,13.7796,124.39,77.2,89,100,13.11,PH,1675193475
110,laguna,38.421,-121.4238,53.31,48,0,9.22,US,1675193475
111,moyamba,8.1667,-12.4333,78.64,72,55,6.46,SL,1675193476
112,east london,-33.0153,27.9116,74.48,86,45,17.49,ZA,1675193321
113,hofn,64.2539,-15.2082,30.54,64,99,20.33,IS,1675193477
114,tingi,-11.3,35.0333,64.2,93,90,3.0,TZ,1675193477
115,samarai,-10.6167,150.6667,80.65,81,96,5.28,PG,1675193477
116,port blair,11.6667,92.75,80.64,78,40,3.44,IN,1675193478
117,ketchikan,55.3422,-131.6461,40.98,93,100,6.91,US,1675193478
118,goderich,43.7501,-81.7165,20.91,67,100,8.05,CA,1675193478
119,kaitangata,-46.2817,169.8464,61.52,98,100,1.03,NZ,1675193479
120,avarua,-21.2078,-159.775,80.65,78,20,5.75,CK,1675193479
121,new norfolk,-42.7826,147.0587,58.5,68,53,2.62,AU,1675193479
122,bama,11.5221,13.6856,79.27,17,100,8.57,NG,1675193480
123,hualmay,-11.0964,-77.6139,76.15,70,100,8.41,PE,1675193480
124,bowen,-20.0167,148.2333,80.22,87,100,14.23,AU,1675193480
125,dikson,73.5069,80.5464,-4.25,93,98,8.72,RU,1675193481
126,hami,42.8,93.45,25.97,32,100,1.14,CN,1675193481
127,porto nacional,-10.7081,-48.4172,93.2,61,67,2.8,BR,1675193481
128,burnie,-41.0667,145.9167,57.94,90,69,5.97,AU,1675193407
129,tiksi,71.6872,128.8694,-6.88,98,100,11.05,RU,1675193482
130,buraydah,26.326,43.975,64.85,58,45,15.26,SA,1675193358
131,coihaique,-45.5752,-72.0662,75.81,18,0,9.22,CL,1675193482
132,castro,-24.7911,-50.0119,64.22,97,100,6.15,BR,1675193483
133,saskylakh,71.9167,114.0833,-30.5,97,100,6.06,RU,1675193483
134,mar del plata,-38.0023,-57.5575,79.83,79,20,14.97,AR,1675193461
135,upernavik,72.7868,-56.1549,1.44,94,100,11.68,GL,1675193484
136,huarmey,-10.0681,-78.1522,76.21,71,61,8.68,PE,1675193484
137,hirara,24.8,125.2833,68.67,62,43,16.26,JP,1675193484
138,kano,12.0001,8.5167,73.29,33,0,3.44,NG,1675193485
139,melilla,35.2937,-2.9383,53.98,66,0,3.44,ES,1675193485
140,vanimo,-2.6741,141.3028,76.98,88,99,3.76,PG,1675193485
141,bayshore gardens,27.4253,-82.5904,82.22,54,40,5.75,US,1675193485
142,lagoa,39.05,-27.9833,56.73,68,89,12.71,PT,1675193486
143,sar-e pul,35.8333,66.1667,38.03,63,100,13.27,AF,1675193486
144,praia da vitoria,38.7333,-27.0667,57.45,77,40,11.18,PT,1675193487
145,croydon,40.0873,-74.9035,38.34,82,100,5.75,US,1675193392
146,luderitz,-26.6481,15.1594,62.55,92,0,8.9,NA,1675193488
147,diego de almagro,-26.3667,-70.05,81.54,26,0,15.75,CL,1675193488
148,chumikan,54.7183,135.315,-15.61,88,49,19.51,RU,1675193488
149,abashiri,44.0213,144.2697,12.94,84,100,9.8,JP,1675193489
150,konya,38.1667,32.5,27.88,79,94,4.85,TR,1675193489
151,sola,-13.8833,167.55,80.44,75,97,5.91,VU,1675193489
152,micheweni,-4.9667,39.8333,78.22,78,53,7.85,TZ,1675193490
153,nurota,40.5614,65.6886,44.44,59,100,11.3,UZ,1675193490
154,alpiarca,39.2571,-8.5819,47.98,78,1,4.25,PT,1675193490
155,pangnirtung,66.1451,-65.7125,-27.4,56,40,0.0,CA,1675193491
156,hermanus,-34.4187,19.2345,69.8,79,38,11.72,ZA,1675193282
157,banjar,-8.19,114.9675,77.22,91,100,3.13,ID,1675193491
158,airai,-8.9266,125.4092,60.51,94,100,1.83,TL,1675193491
159,bengkulu,-3.8004,102.2655,73.87,93,100,6.17,ID,1675193492
160,tasiilaq,65.6145,-37.6368,12.36,80,100,6.89,GL,1675193492
161,ostrovnoy,68.0531,39.5131,25.43,92,97,6.8,RU,1675193493
162,bumbuna,9.05,-11.7333,83.19,24,1,2.51,SL,1675193493
163,marakkanam,12.2,79.95,76.69,80,100,11.23,IN,1675193493
164,pevek,69.7008,170.3133,12.42,78,0,9.69,RU,1675193494
165,salalah,17.0151,54.0924,75.29,57,75,6.91,OM,1675193271
166,nanortalik,60.1432,-45.2371,18.77,77,100,1.32,GL,1675193495
167,bethel,41.3712,-73.414,38.55,60,100,10.36,US,1675193495
168,kahului,20.8947,-156.47,79.84,79,20,5.99,US,1675193281
169,yuzhno-kurilsk,44.0306,145.8556,18.82,73,51,6.64,RU,1675193496
170,saint-augustin,51.226,-58.6502,6.3,76,26,9.71,CA,1675193496
171,portobelo,9.55,-79.65,87.04,72,94,14.81,PA,1675193496
172,grand gaube,-20.0064,57.6608,79.2,83,56,15.86,MU,1675193497
173,ust-tsilma,65.441,52.1498,24.48,85,83,11.32,RU,1675193497
174,narsaq,60.9167,-46.05,21.42,92,100,0.78,GL,1675193497
175,wagar,16.1525,36.2032,81.09,30,51,8.14,SD,1675193497
176,norman wells,65.282,-126.8329,-12.96,70,75,11.5,CA,1675193498
177,ancud,-41.8697,-73.8203,63.18,57,0,9.19,CL,1675193498
178,kalga,50.9251,118.898,-11.88,93,11,6.11,RU,1675193498
179,honningsvag,70.9821,25.9704,35.35,87,75,14.97,NO,1675193499
180,faanui,-16.4833,-151.75,80.8,76,31,14.47,PF,1675193499
181,nouadhibou,20.931,-17.0347,66.18,59,95,18.41,MR,1675193499
182,ilulissat,69.2167,-51.1,6.82,85,75,14.97,GL,1675193500
183,iskele,39.484,26.9278,39.29,65,75,4.61,TR,1675193500
184,suluq,31.6682,20.2521,57.13,60,38,19.37,LY,1675193501
185,palana,59.1167,159.9667,12.34,92,100,11.34,RU,1675193501
186,kesinga,20.2,83.2333,69.21,39,67,3.85,IN,1675193501
187,kleive,62.7954,7.6359,32.32,93,75,9.22,NO,1675193502
188,karaj,35.8355,51.0103,38.98,100,100,6.91,IR,1675193502
189,vila velha,-20.3297,-40.2925,84.15,74,40,16.11,BR,1675193503
190,waingapu,-9.6567,120.2641,78.98,81,94,5.88,ID,1675193503
191,port elizabeth,-33.918,25.5701,71.89,96,20,18.41,ZA,1675193423
192,barrow,71.2906,-156.7887,-9.38,77,0,24.16,US,1675193503
193,lieksa,63.3167,30.0167,15.87,98,99,6.42,FI,1675193504
194,maun,-19.9833,23.4167,71.56,100,100,6.91,BW,1675193504
195,kevsala,45.7983,42.6903,36.59,85,73,8.3,RU,1675193504
196,orumiyeh,37.5527,45.0761,31.55,100,75,2.3,IR,1675193376
197,kushiro,42.975,144.3747,16.47,76,24,0.89,JP,1675193505
198,dingle,10.9995,122.6711,74.53,95,57,8.32,PH,1675193505
199,ghanzi,-21.5667,21.7833,68.09,87,99,10.87,BW,1675193506
200,elko,41.0002,-115.5012,3.63,66,15,5.01,US,1675193506
201,san cristobal,7.7669,-72.225,77.18,51,64,4.63,VE,1675193506
202,victor harbor,-35.5667,138.6167,55.69,80,25,5.93,AU,1675193506
203,thompson,55.7435,-97.8558,-21.84,63,75,5.75,CA,1675193507
204,waterloo,43.4668,-80.5164,19.02,74,100,5.75,CA,1675193507
205,blytheville,35.9273,-89.919,26.65,82,100,19.57,US,1675193507
206,biloela,-24.4167,150.5,74.46,93,75,7.94,AU,1675193508
207,evensk,61.95,159.2333,15.69,95,100,7.9,RU,1675193508
208,saint-georges,12.0564,-61.7485,82.08,65,40,12.66,GD,1675193509
209,grindavik,63.8424,-22.4338,28.87,69,0,11.5,IS,1675193509
210,beringovskiy,63.05,179.3167,26.78,93,68,13.2,RU,1675193510
211,banyuwangi,-8.2325,114.3576,76.05,91,100,0.87,ID,1675193510
212,jiexiu,37.0244,111.9125,32.86,26,100,6.85,CN,1675193510
213,urucara,-2.5364,-57.76,77.99,91,99,2.53,BR,1675193511
214,iqaluit,63.7506,-68.5145,-15.07,64,100,14.97,CA,1675193511
215,reconquista,-29.15,-59.65,103.42,13,0,7.9,AR,1675193386
216,broome,42.2506,-75.833,28.56,62,75,6.91,US,1675193512
217,aasiaat,68.7098,-52.8699,-0.99,93,100,7.18,GL,1675193512
218,port hardy,50.6996,-127.4199,37.58,87,100,19.57,CA,1675193513
219,tsabong,-26.0217,22.401,74.91,60,100,5.3,BW,1675193513
220,high level,58.5169,-117.136,-0.29,92,75,2.3,CA,1675193514
221,bubaque,11.2833,-15.8333,77.58,68,1,16.49,GW,1675193514
222,nador,35.174,-2.9287,53.85,66,0,3.44,MA,1675193514
223,kenai,60.5544,-151.2583,31.08,98,100,4.61,US,1675193515
224,karratha,-20.7377,116.8463,86.02,59,15,9.22,AU,1675193515
225,manuk mangkaw,4.8,119.85,80.2,80,85,9.64,PH,1675193515
226,waipawa,-41.4122,175.5153,63.43,81,100,10.76,NZ,1675193516
227,oranjestad,12.524,-70.027,82.35,61,75,14.97,AW,1675193516
228,kapoeta,4.7717,33.5903,85.77,28,6,6.87,SS,1675193516
229,kalispell,48.1958,-114.3129,19.49,85,100,0.0,US,1675193517
230,tezu,27.9167,96.1667,64.76,28,89,3.65,IN,1675193517
231,baykit,61.67,96.37,-0.04,99,100,0.98,RU,1675193517
232,panji,-7.7253,114.0995,75.65,90,100,4.38,ID,1675193518
233,longyearbyen,78.2186,15.6401,15.64,67,20,17.27,SJ,1675193518
234,stephenville,32.2207,-98.2023,25.25,88,100,10.36,US,1675193518
235,guayaramerin,-10.8368,-65.3614,82.45,69,75,11.5,BO,1675193518
236,porto novo,6.4965,2.6036,82.22,80,92,7.63,BJ,1675193519
237,ajdabiya,30.7554,20.2263,57.94,61,43,16.6,LY,1675193519
238,los lunas,34.8062,-106.7334,50.88,32,0,3.0,US,1675193519
239,mayo,38.8876,-76.5119,39.67,89,100,5.01,US,1675193520
240,husavik,66.0449,-17.3389,28.94,91,100,27.56,IS,1675193520
241,acapetahua,15.2833,-92.7,91.35,38,6,11.59,MX,1675193520
242,kakonko,-3.2828,30.9642,64.18,91,56,5.44,TZ,1675193521
243,sochi,43.6,39.7303,39.29,72,100,3.67,RU,1675193265
244,mahibadhoo,3.7833,72.9667,79.95,73,100,8.05,MV,1675193521
245,neijiang,29.5835,105.0622,50.99,44,0,3.85,CN,1675193521
246,namibe,-15.1961,12.1522,72.41,80,98,5.08,AO,1675193522
247,tiarei,-17.5333,-149.3333,82.0,76,10,14.47,PF,1675193522
248,darnah,32.767,22.6367,57.7,60,7,28.66,LY,1675193522
249,geraldton,-28.7667,114.6,72.01,83,0,4.61,AU,1675193523
250,havoysund,70.9963,24.6622,35.83,80,100,16.42,NO,1675193523
251,bagdarin,54.4333,113.6,-14.22,92,14,4.56,RU,1675193524
252,chamonix-mont-blanc,45.9238,6.8693,31.42,59,91,2.04,FR,1675193289
253,torbay,47.6666,-52.7314,34.57,88,75,10.36,CA,1675193524
254,richards bay,-28.783,32.0377,74.17,90,100,9.35,ZA,1675193525
255,umm lajj,25.0213,37.2685,66.42,46,3,12.48,SA,1675193525
256,lavrentiya,65.5833,-171.0,22.26,97,100,2.59,RU,1675193465
257,los llanos de aridane,28.6585,-17.9182,58.75,75,75,10.36,ES,1675193299
258,baruun-urt,46.6806,113.2792,-6.47,87,4,8.63,MN,1675193526
259,mumford,5.2618,-0.759,80.19,82,100,7.4,GH,1675193526
260,rio grande,-32.035,-52.0986,86.11,64,0,12.48,BR,1675193527
261,flin flon,54.7682,-101.865,-13.16,64,40,3.44,CA,1675193527
262,russell,32.3502,-85.1999,68.2,94,100,3.44,US,1675193527
263,teluknaga,-6.0989,106.6381,80.64,94,75,4.61,ID,1675193465
264,tura,25.5198,90.2201,61.75,55,100,1.48,IN,1675193528
265,mayumba,-3.432,10.6554,78.76,82,13,8.23,GA,1675193528
266,port-gentil,-0.7193,8.7815,80.56,78,20,6.91,GA,1675193528
267,union,40.6334,-74.2663,39.9,64,75,11.5,US,1675193529
268,logan lake,50.4998,-120.8025,16.09,92,100,3.13,CA,1675193529
269,carnarvon,-24.8667,113.6333,75.7,83,33,16.62,AU,1675193529
270,paamiut,61.994,-49.6678,13.75,66,100,9.89,GL,1675193530
271,norsup,-16.0667,167.3833,80.26,78,63,4.36,VU,1675193530
272,miri,4.4148,114.0089,75.34,94,20,2.3,MY,1675193531
273,caxito,-8.5785,13.6643,78.53,86,94,2.13,AO,1675193531
274,shimoda,34.6667,138.95,40.91,72,2,11.36,JP,1675193531
275,davila,18.4726,120.5763,74.1,70,3,4.25,PH,1675193532
276,winnemucca,40.973,-117.7357,25.32,41,30,3.29,US,1675193532
277,korenevo,55.6719,38.0078,32.81,86,100,11.18,RU,1675193533
278,lulea,65.5842,22.1547,8.67,92,0,3.44,SE,1675193417
279,bouillon,49.7932,5.067,42.06,99,100,6.4,BE,1675193403
280,ler,8.3018,30.1418,86.5,15,9,5.59,SS,1675193533
281,nekhayevskiy,50.4106,41.7561,32.36,99,100,5.75,RU,1675193534
282,port macquarie,-31.4333,152.9167,65.89,89,9,7.63,AU,1675193534
283,clyde river,70.4692,-68.5914,-14.57,76,100,5.75,CA,1675193535
284,georgetown,5.4112,100.3354,80.53,83,20,4.61,MY,1675193467
285,merauke,-8.4667,140.3333,79.12,87,100,7.14,ID,1675193535
286,lianzhou,24.7811,112.3825,57.52,77,100,1.57,CN,1675193536
287,dongsheng,39.8161,109.9776,12.96,43,98,11.72,CN,1675193536
288,riyadh,24.6877,46.7219,69.94,29,4,14.56,SA,1675193255
289,fairbanks,64.8378,-147.7164,18.61,87,100,4.61,US,1675193537
290,estevan,49.1334,-102.9842,5.34,78,100,10.36,CA,1675193537
291,north bend,43.4065,-124.2243,47.07,77,0,0.0,US,1675193537
292,fare,-16.7,-151.0167,80.6,76,50,14.12,PF,1675193538
293,chake chake,-5.2459,39.7666,76.12,81,55,6.64,TZ,1675193538
294,sicamous,50.8331,-118.9856,26.19,91,100,3.87,CA,1675193538
295,camacha,33.0833,-16.3333,56.62,67,40,16.11,PT,1675193539
296,bo rai,12.5728,102.5371,73.72,70,78,0.94,TH,1675193539
297,ambon,-3.6954,128.1814,77.14,88,20,3.44,ID,1675193511
298,auki,-8.7676,160.7034,77.49,84,99,3.58,SB,1675193539
299,sobolevo,54.4299,31.8996,31.1,84,100,9.84,RU,1675193540
300,namwala,-15.7504,26.4384,65.8,96,74,4.07,ZM,1675193540
301,talnakh,69.4865,88.3972,1.2,95,100,9.66,RU,1675193540
302,westport,41.1415,-73.3579,39.43,60,100,11.5,US,1675193541
303,alice springs,-23.7,133.8833,72.95,100,100,0.0,AU,1675193541
304,dasoguz,41.8363,59.9666,40.95,70,0,16.11,TM,1675193541
305,san patricio,28.017,-97.5169,40.87,79,100,14.12,US,1675193542
306,batemans bay,-35.7167,150.1833,65.1,91,74,5.28,AU,1675193542
307,pochutla,15.7432,-96.4661,89.82,42,0,10.78,MX,1675193542
308,kyren,51.6828,102.1408,0.95,83,100,1.21,RU,1675193543
309,inhambane,-23.865,35.3833,77.59,71,62,12.03,MZ,1675193543
310,glens falls,43.3095,-73.644,30.29,52,100,12.66,US,1675193543
311,lazaro cardenas,17.9583,-102.2,82.63,56,0,9.24,MX,1675193543
312,araouane,18.9048,-3.5265,64.42,9,3,10.4,ML,1675193544
313,rio gallegos,-51.6226,-69.2181,69.85,21,0,19.57,AR,1675193444
314,bani,18.2833,-70.3333,85.86,51,75,16.44,DO,1675193544
315,morada nova,-5.1067,-38.3725,91.96,38,83,5.91,BR,1675193545
316,san ramon,37.7799,-121.978,55.72,25,0,11.5,US,1675193545
317,aswan,24.0934,32.907,60.1,21,0,8.05,EG,1675193545
318,half moon bay,37.4636,-122.4286,58.8,24,0,6.91,US,1675193545
319,sao gabriel da cachoeira,-0.1303,-67.0892,87.6,70,40,5.75,BR,1675193546
320,itarema,-2.9248,-39.9167,82.11,73,92,14.23,BR,1675193546
321,tommot,58.9564,126.2925,-12.93,94,100,7.92,RU,1675193546
322,calama,-22.4667,-68.9333,72.09,43,40,20.71,CL,1675193499
323,seoul,37.5683,126.9778,33.4,97,100,4.61,KR,1675193547
324,brezice,45.9033,15.5911,36.81,79,21,2.3,SI,1675193548
325,miraflores,19.2167,-98.8083,79.97,19,2,5.41,MX,1675193548
326,okha,53.5739,142.9478,-17.66,96,20,8.55,RU,1675193402
327,krasnoarmeysk,51.0239,45.6969,21.56,91,100,5.97,RU,1675193549
328,yining,29.0361,114.5636,50.29,55,0,1.28,CN,1675193549
329,sitka,57.0531,-135.33,40.89,70,100,4.61,US,1675193550
330,mehamn,71.0357,27.8492,33.71,93,100,17.27,NO,1675193550
331,te anau,-45.4167,167.7167,61.48,92,100,0.89,NZ,1675193550
332,olafsvik,64.8945,-23.7142,31.23,76,100,26.57,IS,1675193550
333,gorontalo,0.5412,123.0595,74.14,97,94,4.09,ID,1675193551
334,klaksvik,62.2266,-6.589,40.12,95,100,12.15,FO,1675193551
335,bela palanka,43.2183,22.3111,36.09,96,95,6.24,RS,1675193551
336,kibala,9.1104,18.3463,78.75,47,0,0.0,TD,1675193552
337,kuala pilah,2.7389,102.2487,70.79,98,88,1.88,MY,1675193429
338,ust-kuyga,70.0167,135.6,-17.9,99,100,7.31,RU,1675193552
339,kalevala,65.2,31.1667,14.16,95,35,8.25,RU,1675193400
340,seymchan,62.8833,152.4333,-21.42,100,95,0.76,RU,1675193553
341,sorland,67.667,12.6934,35.46,58,78,14.67,NO,1675193553
342,dunedin,-45.8742,170.5036,63.81,99,100,4.0,NZ,1675193553
343,simao,22.7886,100.9748,51.85,82,4,1.72,CN,1675193554
344,sioux lookout,50.1001,-91.917,-2.13,60,20,8.05,CA,1675193554
345,khani,41.9563,42.9566,31.57,79,100,1.61,GE,1675193554
346,marienburg,54.0359,19.0266,38.84,97,100,17.02,PL,1675193555
347,qasigiannguit,68.8193,-51.1922,7.05,97,100,4.72,GL,1675193555
348,mnogovershinnyy,53.9353,139.9242,-18.76,90,19,5.37,RU,1675193556
349,katsuura,35.1333,140.3,42.13,67,16,1.5,JP,1675193556
350,campbell river,50.0163,-125.2446,35.46,100,100,6.91,CA,1675193556
351,ambad,19.6167,75.8,69.73,52,38,13.15,IN,1675193557
352,kavieng,-2.5744,150.7967,81.66,75,100,7.92,PG,1675193557
353,kampene,-3.6,26.6667,64.98,98,100,1.03,CD,1675193558
354,boueni,-12.9025,45.0761,82.38,75,89,9.28,YT,1675193558
355,cabra,37.4725,-4.4421,44.29,50,0,4.27,ES,1675193558
356,amalapuram,16.5833,82.0167,74.75,67,96,5.91,IN,1675193559
357,hobyo,5.3505,48.5268,76.32,72,1,17.85,SO,1675193559
358,jaisalmer,26.9147,70.9181,59.14,36,0,8.08,IN,1675193559
359,khudumelapye,-23.8833,24.75,70.0,72,98,5.59,BW,1675193560
360,ayakudi,10.45,77.55,72.68,72,89,2.98,IN,1675193560
361,kununurra,-15.7667,128.7333,78.78,94,75,0.0,AU,1675193560
362,fort nelson,58.8053,-122.7002,7.95,80,100,4.61,CA,1675193560
363,itoman,26.1247,127.6694,62.62,67,75,5.75,JP,1675193561
364,khawhai,23.3667,93.1167,46.26,47,92,2.51,IN,1675193561
365,rongcheng,30.634,117.8517,49.3,57,0,1.99,CN,1675193561
366,fortuna,40.5982,-124.1573,53.98,53,86,3.0,US,1675193562
367,hatton,6.8916,80.5955,60.71,93,100,1.5,LK,1675193563
368,kota kinabalu,5.9749,116.0724,75.18,100,20,2.3,MY,1675193563
369,cape town,-33.9258,18.4232,70.88,79,75,18.41,ZA,1675193453
370,sterling,39.0062,-77.4286,38.68,90,100,8.05,US,1675193347
371,zwedru,6.0667,-8.1281,79.36,58,23,3.51,LR,1675193564
372,honiara,-9.4333,159.95,77.23,82,85,2.26,SB,1675193564
373,srednekolymsk,67.45,153.6833,-18.67,95,63,8.08,RU,1675193564
374,kruisfontein,-34.0033,24.7314,67.98,96,12,5.5,ZA,1675193565
375,nishihara,26.1842,127.7558,61.88,67,75,5.75,JP,1675193565
376,kedrovyy,56.1667,91.8167,-1.14,99,100,3.31,RU,1675193565
377,loa janan,-0.583,117.095,73.62,98,100,1.68,ID,1675193566
378,curaca,-8.9903,-39.9094,88.88,36,93,11.27,BR,1675193566
379,hargeysa,9.56,44.065,57.4,84,10,8.68,SO,1675193566
380,alihe,50.5667,123.7167,-1.34,98,100,3.67,CN,1675193567
381,marang,5.2056,103.2059,76.91,86,100,5.21,MY,1675193567
382,tanete,-3.9443,119.7848,73.81,95,100,2.68,ID,1675193567
383,preobrazheniye,42.9019,133.9064,20.89,95,100,9.84,RU,1675193567
384,changtu,42.7788,124.0955,20.12,61,100,11.5,CN,1675193568
385,marrakesh,31.6315,-8.0083,60.87,31,75,4.61,MA,1675193568
386,tupik,54.4253,119.9327,-17.57,98,89,3.8,RU,1675193568
387,oriximina,-1.7656,-55.8661,77.23,81,100,2.8,BR,1675193569
388,san quintin,30.4833,-115.95,57.69,57,3,7.7,MX,1675193569
389,homer,59.6425,-151.5483,35.76,93,100,0.0,US,1675193569
390,raga,8.4596,25.678,81.82,14,47,3.31,SS,1675193570
391,kiruna,67.8557,20.2251,13.12,73,100,4.61,SE,1675193377
392,waitara,-38.925,174.25,69.49,88,100,21.47,NZ,1675193571
393,nevinnomyssk,44.6267,41.9453,34.97,81,29,5.14,RU,1675193571
394,awjilah,29.1081,21.2869,54.41,58,17,10.58,LY,1675193572
395,viedma,-40.8135,-62.9967,70.79,44,5,15.84,AR,1675193572
396,coquimbo,-29.9533,-71.3436,73.13,60,0,12.66,CL,1675193572
397,kapit,2.0167,112.9333,74.07,99,100,1.07,MY,1675193572
398,hoshcha,50.6003,26.6744,31.14,88,81,10.38,UA,1675193573
399,kyabe,9.4515,18.9449,86.72,13,41,2.62,TD,1675193573
400,nantucket,41.2835,-70.0995,36.09,78,100,11.5,US,1675193573
401,yulara,-25.2406,130.9889,75.29,34,91,16.4,AU,1675193574
402,quatre cocos,-20.2078,57.7625,78.91,84,88,13.49,MU,1675193574
403,nome,64.5011,-165.4064,17.67,100,100,0.0,US,1675193440
404,teya,60.3778,92.6267,-4.5,100,100,3.51,RU,1675193575
405,esmeraldas,-19.7625,-44.3139,93.31,72,86,3.65,BR,1675193575
406,claremorris,53.7167,-9.0,46.35,77,99,16.42,IE,1675193575
407,padang,-0.9492,100.3543,75.25,89,100,4.63,ID,1675193576
408,vardo,70.3705,31.1107,31.98,93,75,24.16,NO,1675193576
409,makaha,21.4694,-158.2175,78.71,73,100,4.61,US,1675193576
410,ribeira grande,38.5167,-28.7,57.6,77,20,5.99,PT,1675193576
411,berlevag,70.8578,29.0864,33.75,75,100,21.85,NO,1675193577
412,gat,31.61,34.7642,52.39,100,46,9.04,IL,1675193577
413,ranong,9.9658,98.6348,72.55,84,75,4.83,TH,1675193577
414,pangody,65.85,74.4859,4.68,94,100,14.14,RU,1675193578
415,oranjemund,-28.55,16.4333,63.72,95,0,4.97,NA,1675193578
416,ambilobe,-13.2,49.05,75.25,93,54,1.52,MG,1675193578
417,comodoro rivadavia,-45.8667,-67.5,71.46,40,20,24.16,AR,1675193579
418,sal rei,16.1833,-22.9167,71.8,68,75,16.11,CV,1675193579
419,peniche,39.3558,-9.3811,51.12,77,3,10.78,PT,1675193510
420,maragheh,37.3917,46.2398,34.21,99,100,4.03,IR,1675193580
421,san-pedro,4.7485,-6.6363,79.45,84,7,5.35,CI,1675193580
422,katobu,-4.9408,122.5276,75.74,93,100,2.59,ID,1675193580
423,leningradskiy,69.3833,178.4167,2.71,96,100,5.14,RU,1675193581
424,severo-kurilsk,50.6789,156.125,21.16,62,92,5.3,RU,1675193581
425,nalut,30.3333,10.85,45.41,38,17,6.91,LY,1675193582
426,smithers,54.7804,-127.1743,17.92,86,100,3.44,CA,1675193582
427,luang prabang,19.8856,102.1347,60.12,74,9,1.57,LA,1675193582
428,loiza,18.4313,-65.8802,82.38,54,40,16.11,PR,1675193583
429,arteaga,18.4667,-102.4167,82.42,32,0,5.68,MX,1675193583
430,cherskiy,68.75,161.3,-2.49,98,100,4.41,RU,1675193583
431,shcherbynivka,48.3949,37.791,29.73,93,100,2.42,UA,1675193583
432,sao filipe,14.8961,-24.4956,71.51,71,45,9.98,CV,1675193584
433,poyarkovo,49.6,128.6833,-24.92,100,83,4.45,RU,1675193584
434,the valley,18.217,-63.0578,80.46,78,40,4.61,AI,1675193584
435,tapalpa,19.95,-103.7667,73.27,26,1,8.39,MX,1675193585
436,witbank,-25.8713,29.2332,63.12,72,99,5.48,ZA,1675193585
437,vuktyl,63.8567,57.3094,25.75,93,100,14.88,RU,1675193585
438,pundaguitan,6.3711,126.1689,80.62,78,59,13.44,PH,1675193586
439,duki,30.1541,68.5728,47.77,34,5,4.32,PK,1675193586
440,khandbari,27.3747,87.2039,56.43,46,0,4.16,NP,1675193586
441,sanandaj,35.3144,46.9923,32.02,93,100,4.61,IR,1675193514
442,port hedland,-20.3167,118.5667,80.65,83,26,3.44,AU,1675193587
443,zapolyarnyy,69.4154,30.8136,25.88,97,100,6.02,RU,1675193587
444,port lincoln,-34.7333,135.8667,63.66,70,97,8.97,AU,1675193587
445,hovd,48.0056,91.6419,-1.57,79,13,2.86,MN,1675193588
446,makakilo city,21.3469,-158.0858,77.32,77,0,8.05,US,1675193588
447,cayenne,4.9333,-52.3333,82.44,78,75,11.5,GF,1675193388
448,kirakira,-10.4544,161.9205,79.39,81,84,1.1,SB,1675193589
449,wajir,1.7471,40.0573,87.55,32,3,11.12,KE,1675193589
450,warrington,53.3925,-2.5802,46.87,76,0,26.46,GB,1675193589
451,komsomolskiy,40.4272,71.7189,29.12,80,58,9.22,UZ,1675193590
452,bilibino,68.0546,166.4372,2.44,94,70,7.92,RU,1675193590
453,bobrov,51.0961,40.0333,24.64,94,79,4.16,RU,1675193590
454,matola,-25.9622,32.4589,80.55,74,75,14.97,MZ,1675193591
455,sesheke,-17.4759,24.2968,73.31,73,98,4.29,ZM,1675193591
456,misratah,32.3754,15.0925,59.25,54,95,21.83,LY,1675193591
457,pipraich,26.8264,83.53,54.64,78,0,9.71,IN,1675193592
458,havre-saint-pierre,50.2334,-63.5986,8.6,51,0,9.22,CA,1675193592
459,slave lake,55.2834,-114.769,10.38,79,100,2.3,CA,1675193592
460,vao,-22.6667,167.4833,77.9,76,53,11.01,NC,1675193592
461,halifax,44.6453,-63.5724,28.69,92,75,16.11,CA,1675193464
462,vysokogornyy,50.1167,139.15,-17.46,100,97,1.88,RU,1675193593
463,manakara,-22.1333,48.0167,75.16,89,100,10.76,MG,1675193593
464,yar-sale,66.8333,70.8333,9.79,91,100,15.39,RU,1675193594
465,petropavlovsk-kamchatskiy,53.0452,158.6483,-1.23,78,40,8.95,RU,1675193473
466,placido de castro,-10.3353,-67.1856,76.05,96,100,1.77,BR,1675193595
467,ishigaki,24.3448,124.1572,68.13,68,100,6.91,JP,1675193595
468,japura,-0.3167,102.35,72.68,99,100,2.19,ID,1675193595
469,galesong,-5.3166,119.3661,73.42,89,99,10.87,ID,1675193596
470,kieta,-6.2167,155.6333,78.96,84,100,3.51,PG,1675193596
471,namatanai,-3.6667,152.4333,78.93,81,76,3.09,PG,1675193596
472,altamira,-3.2033,-52.2064,91.49,49,40,4.61,BR,1675193597
473,ovalle,-30.5983,-71.2003,83.37,40,37,9.86,CL,1675193597
474,tiznit,29.5833,-9.5,54.88,23,51,17.92,MA,1675193597
475,kavaratti,10.5669,72.642,79.12,77,20,15.57,IN,1675193597
476,santana,-0.0583,-51.1817,81.81,75,97,4.38,BR,1675193598
477,peace river,56.2501,-117.286,7.11,85,100,6.91,CA,1675193598
478,eyl,7.9803,49.8164,73.65,77,1,14.23,SO,1675193598
479,gamba,-2.65,10.0,77.85,82,46,6.98,GA,1675193599
480,ponferrada,42.5466,-6.5962,41.22,69,8,1.01,ES,1675193599
481,souillac,-20.5167,57.5167,79.18,89,40,6.91,MU,1675193599
482,praia,14.9215,-23.5087,73.94,64,20,13.8,CV,1675193600
483,poum,-20.2333,164.0167,78.21,68,45,2.44,NC,1675193600
484,grand-santi,4.25,-54.3833,77.58,94,83,3.2,GF,1675193600
485,akyab,20.15,92.9,68.04,63,23,7.83,MM,1675193601
486,buala,-8.145,159.5921,80.13,76,100,4.72,SB,1675193601
487,moscow,55.7522,37.6156,32.63,92,100,10.27,RU,1675193429
488,south sioux city,42.4739,-96.4136,13.19,56,0,5.99,US,1675193601
489,biltine,14.5333,20.9167,81.07,13,4,13.0,TD,1675193602
490,nur,52.6683,22.3221,31.15,93,100,12.82,PL,1675193602
491,sao joao da barra,-21.6403,-41.0511,86.09,82,71,16.17,BR,1675193602
492,clermont,49.5,2.4167,46.04,96,78,9.62,FR,1675193603
493,san andres,12.5847,-81.7006,84.22,70,75,21.65,CO,1675193603
494,yarada,17.65,83.2667,73.72,78,40,2.3,IN,1675193603
495,bhikhi,30.0667,75.5333,48.92,68,5,8.08,IN,1675193604
496,sao miguel do araguaia,-13.275,-50.1628,83.89,68,11,2.89,BR,1675193604
497,nuuk,64.1835,-51.7216,12.81,67,40,21.85,GL,1675193604
498,port shepstone,-30.7414,30.455,74.66,90,100,18.14,ZA,1675193605
499,port charlotte,26.9762,-82.0906,85.05,71,75,4.0,US,1675193564
500,jaggayyapeta,16.9,80.1,70.41,83,88,3.6,IN,1675193605
501,itaqui,-29.1253,-56.5531,101.44,13,0,10.78,BR,1675193606
502,nuqui,5.7125,-77.2708,80.71,78,27,3.78,CO,1675193606
503,nuevo progreso,23.1667,-97.95,68.47,68,73,9.57,MX,1675193606
504,abu zabad,12.35,29.25,78.96,13,35,10.47,SD,1675193606
505,iisalmi,63.5592,27.1907,24.73,88,100,7.05,FI,1675193607
506,bull savanna,17.8868,-77.5902,81.3,61,6,16.11,JM,1675193607
507,atbasar,51.8,68.3333,-10.1,98,42,2.01,KZ,1675193607
508,chuy,-33.6971,-53.4616,79.92,64,33,12.91,UY,1675193608
509,umm kaddadah,13.6017,26.6876,78.42,12,36,13.76,SD,1675193608
510,touros,-5.1989,-35.4608,81.88,73,98,14.88,BR,1675193609
511,aksu,41.1231,80.2644,12.7,87,12,5.86,CN,1675193609
512,atar,20.5169,-13.0499,71.17,17,51,5.59,MR,1675193609
513,dali,25.7,100.1833,46.74,60,3,5.46,CN,1675193610
514,rioja,-29.4111,-66.8507,96.66,32,27,9.64,AR,1675193403
515,tamandare,-8.7597,-35.1047,81.34,71,52,9.13,BR,1675193610
516,xaltianguis,17.0667,-99.8333,76.51,37,0,7.72,MX,1675193611
517,merta,26.65,74.0333,56.1,48,0,6.15,IN,1675193611
518,najran,17.4924,44.1277,68.65,24,45,2.48,SA,1675193370
519,zhicheng,30.2956,111.5047,49.71,46,0,4.16,CN,1675193611
520,baghmara,23.795,86.2085,65.23,50,66,10.38,IN,1675193612
521,novikovo,51.1537,37.8879,25.52,82,19,6.22,RU,1675193612
522,shahreza,32.0339,51.8794,38.05,84,97,5.21,IR,1675193612
523,ballina,-28.8667,153.5667,72.01,99,59,5.37,AU,1675193613
524,sistranda,63.7256,8.834,28.36,66,100,10.85,NO,1675193613
525,kaeo,-35.1,173.7833,72.32,93,98,5.21,NZ,1675193613
526,chicama,-7.8447,-79.1469,72.14,55,53,10.76,PE,1675193614
527,eskil,38.4017,33.4131,30.18,83,87,6.04,TR,1675193603
528,onokhoy,51.932,108.0747,-11.29,99,21,3.06,RU,1675193614
529,bela,25.9333,81.9833,52.81,86,0,7.87,IN,1675193615
530,salinopolis,-0.6136,-47.3561,80.46,81,70,7.63,BR,1675193615
531,marsa matruh,31.3525,27.2453,55.6,67,40,16.11,EG,1675193615
532,ercis,39.0287,43.3586,28.18,83,100,4.59,TR,1675193599
533,agadez,19.75,10.25,62.92,21,100,9.22,NE,1675193616
534,vila franca do campo,37.7167,-25.4333,57.61,82,53,9.04,PT,1675193616
535,ternate,0.8,127.4,79.0,83,87,7.9,ID,1675193616
536,gemena,3.25,19.7667,80.26,47,73,2.17,CD,1675193617
537,itu,-23.2642,-47.2992,86.92,82,100,6.44,BR,1675193617
538,liku,-0.7275,119.8922,74.93,97,100,0.78,ID,1675193617
539,horta,38.5333,-28.6333,56.84,77,20,5.99,PT,1675193618
540,kihei,20.785,-156.4656,79.84,82,20,0.0,US,1675193375
541,fort-shevchenko,44.5086,50.263,34.92,59,23,9.51,KZ,1675193618
542,sulangan,11.1373,123.7228,79.0,84,12,13.47,PH,1675193619
543,eureka,40.8021,-124.1637,54.25,55,95,1.01,US,1675193412
544,ebnat-kappel,47.262,9.1247,37.51,80,100,4.03,CH,1675193619
545,fort wellington,6.4,-57.6,79.2,68,26,8.77,GY,1675193619
546,nhulunbuy,-12.2333,136.7667,81.21,89,96,6.91,AU,1675193620
547,coahuayana,18.7333,-103.6833,87.48,44,0,7.18,MX,1675193620
548,tarko-sale,64.9225,77.785,-3.21,99,52,10.89,RU,1675193620
549,oni,42.5794,43.4425,31.17,78,72,4.47,GE,1675193621
550,kurchum,48.5722,83.6542,-6.02,92,100,1.61,KZ,1675193621
551,jiayuguan,39.8167,98.3,17.49,46,9,3.83,CN,1675193621
552,labuhan,-6.8844,112.2051,77.34,84,100,7.18,ID,1675193622
553,usinsk,65.9939,57.5281,23.41,94,100,22.64,RU,1675193622
554,dzhebariki-khaya,62.2167,135.8,-29.45,97,100,4.52,RU,1675193622
555,nabire,-3.3667,135.4833,75.13,91,96,2.75,ID,1675193623
556,tres arroyos,-38.3739,-60.2798,76.66,60,20,18.7,AR,1675193623
557,sabang,5.8933,95.3214,78.76,80,100,9.35,ID,1675193623
558,sturgis,41.7992,-85.4192,20.88,58,75,5.75,US,1675193358
559,cap malheureux,-19.9842,57.6142,77.47,83,60,14.9,MU,1675193624
560,mabaruma,8.2,-59.7833,80.49,56,10,7.0,GY,1675193624
561,mahon,39.8885,4.2658,50.56,71,40,8.05,ES,1675193624
562,singkang,2.1006,102.7994,72.52,94,97,3.83,MY,1675193625
563,mayfield,36.7417,-88.6367,24.15,70,100,10.29,US,1675193625
564,bella union,-30.2752,-57.6007,97.45,16,0,8.25,UY,1675193625
565,saint-hubert,50.05,5.3833,38.03,99,100,8.32,BE,1675193626
566,imbituba,-28.24,-48.6703,78.67,77,100,1.48,BR,1675193626
567,mukhen,48.1,136.1,-0.44,92,100,4.65,RU,1675193626
568,yeppoon,-23.1333,150.7333,76.78,91,73,8.19,AU,1675193626
569,mackay,-21.15,149.2,77.68,89,100,11.03,AU,1675193627
570,ati,13.2154,18.3353,81.37,14,3,12.86,TD,1675193627
571,williams lake,52.1415,-122.1445,22.05,84,100,10.36,CA,1675193627
572,shelburne,44.0787,-80.2041,19.9,71,73,6.26,CA,1675193628
