City_ID,City,Lat,Lng,Max Temp,Humidity,Cloudiness,Wind Speed,Country,Date
0,kapaa,22.0752,-159.319,298.76,73,3,0.89,US,1673125628
1,busselton,-33.65,115.3333,285.83,91,2,3.57,AU,1673125912
2,ilulissat,69.2167,-51.1,263.16,67,100,1.54,GL,1673125913
3,castro,-24.7911,-50.0119,291.49,81,72,4.56,BR,1673125638
4,solnechnyy,50.7214,136.6319,249.67,95,98,2.19,RU,1673125914
5,albany,42.6001,-73.9662,277.01,71,100,0.89,US,1673125914
6,new norfolk,-42.7826,147.0587,289.22,68,0,0.45,AU,1673125914
7,hobyo,5.3505,48.5268,298.46,79,3,7.39,SO,1673125915
8,kansanshi,-12.0951,26.4273,288.9,97,97,1.29,ZM,1673125787
9,bathsheba,13.2167,-59.5167,299.49,83,40,7.72,BB,1673125915
10,tiksi,71.6872,128.8694,233.4,100,77,1.4,RU,1673125916
11,rikitea,-23.1203,-134.9692,298.87,73,2,6.57,PF,1673125916
12,mkushi,-13.6202,29.3939,289.99,98,100,1.31,ZM,1673125916
13,mataura,-46.1927,168.8643,289.15,48,1,2.43,NZ,1673125636
14,port alfred,-33.5906,26.891,290.47,92,82,3.58,ZA,1673125917
15,camacha,33.0833,-16.3333,289.83,77,20,2.57,PT,1673125917
16,carutapera,-1.195,-46.02,298.48,84,89,3.54,BR,1673125918
17,veraval,20.9,70.3667,296.22,72,0,1.93,IN,1673125918
18,bantry,51.6833,-9.45,283.03,85,100,10.04,IE,1673125918
19,bilibino,68.0546,166.4372,248.76,99,100,0.57,RU,1673125919
20,punta arenas,-53.15,-70.9167,292.21,30,0,8.23,CL,1673125808
21,sorland,67.667,12.6934,275.07,63,80,12.19,NO,1673125919
22,emerald,-23.5333,148.1667,296.12,85,80,4.9,AU,1673125920
23,jamestown,42.097,-79.2353,274.92,72,100,4.63,US,1673125920
24,damara,4.9608,18.7035,298.84,29,98,0.22,CF,1673125920
25,tuktoyaktuk,69.4541,-133.0374,249.9,97,100,3.46,CA,1673125921
26,atuona,-9.8,-139.0333,298.76,76,50,7.2,PF,1673125859
27,vila do maio,15.1333,-23.2167,295.59,74,100,7.55,CV,1673125824
28,hermanus,-34.4187,19.2345,291.37,73,83,4.6,ZA,1673125438
29,mersin,36.862,34.6509,283.54,56,2,1.97,TR,1673125922
30,sur,22.5667,59.5289,293.63,70,0,2.0,OM,1673125922
31,saskylakh,71.9167,114.0833,235.9,99,99,1.33,RU,1673125923
32,srednekolymsk,67.45,153.6833,234.25,96,100,3.58,RU,1673125923
33,cape town,-33.9258,18.4232,294.47,73,14,5.36,ZA,1673125824
34,sitka,57.0531,-135.33,282.09,61,40,7.72,US,1673125924
35,bengkulu,-3.8004,102.2655,296.91,88,100,3.01,ID,1673125924
36,victoria,22.2855,114.1577,292.25,61,100,1.79,HK,1673125925
37,puerto ayora,-0.7393,-90.3518,301.13,91,18,2.24,EC,1673125925
38,ushuaia,-54.8,-68.3,290.96,32,40,3.09,AR,1673125795
39,wickford,51.611,0.5233,281.99,82,0,7.2,GB,1673125926
40,leningradskiy,69.3833,178.4167,246.59,97,96,2.31,RU,1673125926
41,kaitangata,-46.2817,169.8464,287.79,61,0,4.55,NZ,1673125686
42,talnakh,69.4865,88.3972,233.64,99,100,3.35,RU,1673125927
43,leticia,-4.2153,-69.9406,303.18,74,40,3.09,CO,1673125927
44,faanui,-16.4833,-151.75,300.45,65,29,0.89,PF,1673125928
45,miles city,46.4083,-105.8406,276.69,65,0,0.0,US,1673125929
46,havre-saint-pierre,50.2334,-63.5986,267.35,93,100,4.12,CA,1673125929
47,torbay,47.6666,-52.7314,272.36,85,99,2.68,CA,1673125670
48,mitsamiouli,-11.3847,43.2844,300.21,79,17,4.05,KM,1673125930
49,sechura,-5.5569,-80.8222,298.41,58,36,7.03,PE,1673125930
50,yulara,-25.2406,130.9889,291.85,78,95,7.1,AU,1673125931
51,clyde river,70.4692,-68.5914,240.31,94,22,0.78,CA,1673125931
52,luderitz,-26.6481,15.1594,292.93,64,2,2.68,NA,1673125931
53,gorom-gorom,14.4439,-0.2361,298.15,17,17,4.47,BF,1673125932
54,shingu,33.7333,135.9833,281.0,66,45,4.03,JP,1673125933
55,bulgan,48.8125,103.5347,258.01,86,54,1.37,MN,1673125933
56,lang son,21.8333,106.7333,289.49,54,100,0.66,VN,1673125934
57,vagur,61.4732,-6.8119,279.48,83,35,7.33,FO,1673125934
58,marzuq,14.4,46.4667,289.77,75,0,0.62,YE,1673125935
59,tasiilaq,65.6145,-37.6368,265.24,60,77,3.21,GL,1673125935
60,le vauclin,14.5452,-60.8388,300.18,78,75,4.12,MQ,1673125936
61,labuhan,-6.8844,112.2051,297.72,86,100,4.36,ID,1673125936
62,kodiak,57.79,-152.4072,272.88,74,0,9.26,US,1673125936
63,nikolskoye,59.7035,30.7861,257.48,90,87,1.96,RU,1673125937
64,lorengau,-2.0226,147.2712,300.38,77,90,1.49,PG,1673125937
65,severo-kurilsk,50.6789,156.125,269.8,63,88,7.45,RU,1673125937
66,menongue,-14.6585,17.691,293.69,52,80,1.36,AO,1673125938
67,nouadhibou,20.931,-17.0347,294.02,53,0,5.67,MR,1673125938
68,noumea,-22.2763,166.4572,302.14,99,100,2.58,NC,1673125865
69,saint-philippe,-21.3585,55.7679,297.92,81,36,5.16,RE,1673125939
70,hobart,-42.8794,147.3294,289.41,74,20,3.09,AU,1673125939
71,guayaramerin,-10.8368,-65.3614,304.4,48,56,0.9,BO,1673125939
72,aranos,-24.1333,19.1167,298.59,20,1,5.12,NA,1673125940
73,dikson,73.5069,80.5464,255.44,90,100,5.56,RU,1673125741
74,primorsk,46.7348,36.3443,267.38,44,66,4.11,UA,1673125744
75,axim,4.8699,-2.2405,299.65,84,4,2.91,GH,1673125941
76,puerto suarez,-18.95,-57.8,305.46,43,0,2.06,BO,1673125942
77,shenkursk,62.1091,42.896,244.88,99,38,1.8,RU,1673125942
78,yellowknife,62.456,-114.3525,253.45,100,99,1.15,CA,1673125643
79,okato,-39.2,173.8833,286.86,91,100,6.86,NZ,1673125943
80,genhe,50.7833,121.5167,252.54,97,100,0.13,CN,1673125943
81,aykhal,66.0,111.5,234.87,100,100,1.7,RU,1673125729
82,port blair,11.6667,92.75,298.59,76,79,3.4,IN,1673125944
83,bredasdorp,-34.5322,20.0403,291.83,72,32,4.33,ZA,1673125673
84,macusani,-14.0833,-70.4333,279.88,74,97,2.68,PE,1673125944
85,saldanha,-33.0117,17.9442,290.37,92,0,5.38,ZA,1673125945
86,klaksvik,62.2266,-6.589,275.66,81,42,4.37,FO,1673125945
87,ust-ilimsk,58.0006,102.6619,250.27,99,86,2.51,RU,1673125708
88,vaini,-21.2,-175.2,303.24,79,75,6.17,TO,1673125946
89,veracruz,19.3333,-96.6667,301.25,41,0,3.19,MX,1673125946
90,havoysund,70.9963,24.6622,264.28,85,34,8.15,NO,1673125947
91,urusha,54.05,122.9,244.55,99,96,1.06,RU,1673125947
92,iskateley,67.6803,53.1512,236.14,100,30,1.26,RU,1673125947
93,mirabad,30.4362,61.8383,288.74,68,100,3.44,AF,1673125948
94,barrow,71.2906,-156.7887,248.16,84,0,6.17,US,1673125948
95,provideniya,64.3833,-173.3,255.1,95,46,4.87,RU,1673125676
96,hithadhoo,-0.6,73.0833,299.73,80,53,4.62,MV,1673125949
97,bindura,-17.3019,31.3306,290.56,96,100,1.33,ZW,1673125949
98,cherskiy,68.75,161.3,240.81,96,100,1.96,RU,1673125950
99,khatanga,71.9667,102.5,238.44,99,100,1.11,RU,1673125950
100,nome,64.5011,-165.4064,264.19,100,100,1.54,US,1673125951
101,honiara,-9.4333,159.95,300.41,84,99,2.06,SB,1673125750
102,souillac,-20.5167,57.5167,298.24,79,16,4.87,MU,1673125951
103,gravdal,68.1214,13.5031,272.09,59,40,6.17,NO,1673125952
104,tamale,9.4008,-0.8393,302.27,19,0,3.46,GH,1673125952
105,thompson,55.7435,-97.8558,263.93,92,24,2.29,CA,1673125952
106,bethel,41.3712,-73.414,279.56,67,0,2.06,US,1673125953
107,puerto escondido,15.85,-97.0667,303.61,62,0,2.57,MX,1673125953
108,biak,-0.9131,122.8766,298.53,78,100,1.5,ID,1673125782
109,sarangani,5.4033,125.4636,300.25,72,100,4.89,PH,1673125954
110,nampula,-15.1165,39.2666,294.87,95,100,1.05,MZ,1673125954
111,mujiayingzi,42.1167,118.7833,268.21,46,0,3.14,CN,1673125954
112,hovd,48.0056,91.6419,261.62,73,4,1.73,MN,1673125955
113,rensvik,63.1,7.8167,279.3,65,100,4.12,NO,1673125955
114,bangassou,4.7413,22.8184,294.79,33,45,0.62,CF,1673125956
115,saint-pierre,-21.3393,55.4781,297.97,65,30,1.54,RE,1673125956
116,deputatskiy,69.3,139.9,239.34,96,100,1.04,RU,1673125956
117,pangnirtung,66.1451,-65.7125,255.39,93,100,1.06,CA,1673125957
118,san quintin,30.4833,-115.95,291.8,49,2,2.63,MX,1673125957
119,sao joao da barra,-21.6403,-41.0511,297.2,94,100,5.74,BR,1673125958
120,ahipara,-35.1667,173.1667,295.29,74,4,1.7,NZ,1673125958
121,bonthe,7.5264,-12.505,298.79,75,2,4.24,SL,1673125958
122,hokitika,-42.7167,170.9667,292.96,45,45,1.83,NZ,1673125959
123,constitucion,-35.3333,-72.4167,293.14,67,5,3.72,CL,1673125733
124,nanortalik,60.1432,-45.2371,267.61,80,46,2.91,GL,1673125960
125,pecos,31.4229,-103.4932,291.06,20,0,2.57,US,1673125960
126,sao raimundo das mangabeiras,-7.0219,-45.4811,300.38,67,99,1.13,BR,1673125961
127,metro,-5.1131,105.3067,296.31,93,99,0.7,ID,1673125722
128,mar del plata,-38.0023,-57.5575,300.28,85,0,11.62,AR,1673125961
129,san andres,12.5847,-81.7006,301.16,74,40,3.09,CO,1673125723
130,ribeira grande,38.5167,-28.7,290.37,94,75,8.75,PT,1673125962
131,vila velha,-20.3297,-40.2925,296.12,95,75,2.57,BR,1673125906
132,arraial do cabo,-22.9661,-42.0278,293.07,100,100,6.17,BR,1673125963
133,nikolayevsk-na-amure,53.1406,140.73,250.71,96,100,1.56,RU,1673125963
134,lingao,19.9103,109.6859,291.79,90,97,4.91,CN,1673125964
135,saint anthony,45.0205,-93.218,269.17,72,0,3.6,US,1673125964
136,beringovskiy,63.05,179.3167,255.9,96,100,7.05,RU,1673125965
137,qaanaaq,77.484,-69.3632,248.54,95,100,2.13,GL,1673125965
138,jucuaran,13.2539,-88.2478,300.88,41,69,3.07,SV,1673125966
139,hasaki,35.7333,140.8333,270.37,58,6,4.19,JP,1673125966
140,eureka,40.8021,-124.1637,286.49,70,100,4.92,US,1673125966
141,taltal,-25.4,-70.4833,295.76,59,22,2.86,CL,1673125967
142,worthing,50.8145,-0.3713,283.4,79,24,5.36,GB,1673125847
143,dingle,10.9995,122.6711,295.97,86,99,4.25,PH,1673125968
144,kiruna,67.8557,20.2251,257.66,85,100,1.54,SE,1673125968
145,codrington,-38.2667,141.9667,295.81,39,0,3.88,AU,1673125968
146,benin,9.5,2.25,299.91,22,7,2.35,BJ,1673125969
147,sinazongwe,-17.2614,27.4618,296.17,88,100,2.37,ZM,1673125969
148,innisfail,-17.5333,146.0333,297.33,91,100,1.23,AU,1673125970
149,zhuhai,22.2769,113.5678,292.51,72,20,4.12,CN,1673125701
150,georgetown,5.4112,100.3354,299.11,78,20,2.06,MY,1673125970
151,riyadh,24.6877,46.7219,286.23,73,80,2.34,SA,1673125102
152,bintulu,3.1667,113.0333,297.54,90,96,1.2,MY,1673125971
153,gat,31.61,34.7642,287.53,100,3,1.6,IL,1673125971
154,seoul,37.5683,126.9778,268.84,64,34,1.05,KR,1673125907
155,sao filipe,14.8961,-24.4956,296.1,67,11,6.46,CV,1673125972
156,ostrovnoy,68.0531,39.5131,265.94,91,100,2.49,RU,1673125972
157,amur,54.0,128.0,246.86,100,100,0.16,RU,1673125973
158,east london,-33.0153,27.9116,291.66,82,88,2.86,ZA,1673125973
159,bluff,-46.6,168.3333,287.09,64,1,5.58,NZ,1673125973
160,rincon,32.296,-81.2354,293.13,35,0,3.6,US,1673125974
161,najran,17.4924,44.1277,288.42,70,2,1.06,SA,1673125798
162,itarema,-2.9248,-39.9167,299.84,76,0,7.65,BR,1673125975
163,dhidhdhoo,6.8833,73.1,300.16,72,53,3.24,MV,1673125976
164,hami,42.8,93.45,268.72,46,4,1.85,CN,1673125976
165,sakakah,29.9697,40.2064,284.0,58,100,1.82,SA,1673125687
166,bambous virieux,-20.3428,57.7575,298.83,77,20,5.21,MU,1673125977
167,ixtapa,20.7,-105.2,298.72,73,0,5.66,MX,1673125978
168,fortuna,40.5982,-124.1573,286.34,89,20,13.38,US,1673125978
169,naze,28.3667,129.4833,286.28,64,0,4.79,JP,1673125979
170,gouyave,12.1646,-61.7296,298.35,81,100,7.16,GD,1673125979
171,nunoa,-14.48,-70.6411,287.32,42,68,1.95,PE,1673125980
172,labytnangi,66.6572,66.4183,233.94,98,26,1.87,RU,1673125901
173,kavieng,-2.5744,150.7967,301.33,77,51,3.13,PG,1673125980
174,kuusamo,65.9667,29.1833,247.17,76,100,0.51,FI,1673125981
175,tomatlan,19.9333,-105.25,305.11,38,0,4.06,MX,1673125981
176,farias brito,-6.9306,-39.5656,303.37,33,62,0.27,BR,1673125981
177,demerval lobao,-5.3583,-42.6764,299.82,50,32,3.22,BR,1673125982
178,mashhad,36.297,59.6062,280.23,61,0,3.09,IR,1673125983
179,svetlaya,46.5389,138.3297,261.15,70,14,2.36,RU,1673125983
180,suzhou,31.3114,120.6181,280.79,64,0,2.7,CN,1673125983
181,saint george,37.1041,-113.5841,285.06,57,0,2.06,US,1673125984
182,kajaani,64.2273,27.7285,260.18,78,0,4.63,FI,1673125984
183,tokonou,9.65,-9.7833,297.63,26,5,1.66,GN,1673125984
184,acapulco,16.8634,-99.8901,303.05,62,0,3.09,MX,1673125985
185,evensk,61.95,159.2333,246.03,79,11,2.85,RU,1673125763
186,zambezi,-13.5432,23.1047,291.47,96,100,1.94,ZM,1673125986
187,vaitape,-16.5167,-151.75,300.45,65,29,0.82,PF,1673125986
188,iquique,-20.2208,-70.1431,296.17,68,38,4.12,CL,1673125987
189,los llanos de aridane,28.6585,-17.9182,288.01,73,0,3.6,ES,1673125987
190,tambun,-6.2641,107.0712,299.53,74,78,0.56,ID,1673125987
191,cidreira,-30.1811,-50.2056,296.25,72,15,6.72,BR,1673125988
192,te anau,-45.4167,167.7167,288.39,69,22,0.25,NZ,1673125734
193,kahului,20.8947,-156.47,300.91,50,20,2.57,US,1673125989
194,sol-iletsk,51.1631,54.9918,249.8,89,100,7.87,RU,1673125989
195,umm kaddadah,13.6017,26.6876,288.35,33,16,5.3,SD,1673125989
196,ponta do sol,32.6667,-17.1,292.04,77,58,2.68,PT,1673125850
197,bitung,1.4451,125.1824,299.62,84,100,4.5,ID,1673125990
198,husavik,66.0449,-17.3389,274.02,89,100,3.91,IS,1673125991
199,brownwood,31.7093,-98.9912,290.15,32,0,5.14,US,1673125991
200,buin,-33.7333,-70.75,305.61,32,1,6.31,CL,1673125991
201,ahome,25.9167,-109.1833,298.1,38,1,4.47,MX,1673125992
202,chokurdakh,70.6333,147.9167,239.17,97,100,2.14,RU,1673125735
203,aklavik,68.2191,-135.0107,255.15,85,100,1.03,CA,1673125992
204,hay river,60.8156,-115.7999,256.89,96,98,0.32,CA,1673125993
205,sovetskaya,44.7769,41.1722,266.13,62,100,2.09,RU,1673125993
206,gloversville,43.0528,-74.3438,276.54,81,100,4.63,US,1673125993
207,okhotsk,59.3833,143.3,242.93,83,11,5.89,RU,1673125994
208,yokadouma,3.5167,15.05,296.9,33,98,0.95,CM,1673125994
209,heilbron,-27.2812,27.9709,288.88,68,98,7.54,ZA,1673125994
210,santiago de cao,-7.9589,-79.2392,293.22,83,75,3.09,PE,1673125995
211,ugoofaaru,5.6667,73.0,300.19,73,6,4.25,MV,1673125995
212,mangai,-4.05,19.5333,294.39,97,100,0.9,CD,1673125996
213,longyearbyen,78.2186,15.6401,271.06,64,75,6.69,SJ,1673125996
214,kieta,-6.2167,155.6333,300.37,83,84,2.56,PG,1673125996
215,ayia galini,35.1,24.6833,285.29,73,29,2.26,GR,1673125997
216,sri aman,1.2376,111.4621,295.96,96,100,0.67,MY,1673125997
217,college,64.8569,-147.8028,259.12,83,100,1.54,US,1673125704
218,delray beach,26.4615,-80.0728,298.17,63,20,5.14,US,1673125997
219,narsaq,60.9167,-46.05,263.27,70,90,3.97,GL,1673125998
220,port lincoln,-34.7333,135.8667,292.8,75,35,3.23,AU,1673125998
221,crossville,35.949,-85.0269,280.27,85,100,2.06,US,1673125998
222,cartagena,10.3997,-75.5144,302.94,70,20,5.14,CO,1673125999
223,thinadhoo,0.5333,72.9333,299.78,80,97,5.17,MV,1673125999
224,mpika,-11.8343,31.4529,289.28,96,100,1.41,ZM,1673125999
225,abha,18.2164,42.5053,282.29,87,0,2.06,SA,1673125758
226,luau,-10.7073,22.2247,290.99,98,100,1.57,AO,1673126000
227,laguna,38.421,-121.4238,290.94,66,100,8.23,US,1673126000
228,ilebo,-4.3167,20.5833,294.69,94,100,0.34,CD,1673125779
229,kattivakkam,13.2167,80.3167,298.2,78,9,4.45,IN,1673126001
230,commerce,34.0006,-118.1598,295.05,44,0,1.54,US,1673126001
231,fairbanks,64.8378,-147.7164,259.13,83,100,1.54,US,1673126002
232,port hardy,50.6996,-127.4199,280.38,91,86,6.29,CA,1673126002
233,chase,50.8165,-119.6857,279.9,95,100,1.95,CA,1673126002
234,podsineye,53.6658,91.5364,262.57,95,97,1.34,RU,1673126003
235,kavaratti,10.5669,72.642,300.4,65,3,3.35,IN,1673126003
236,monrovia,6.3005,-10.7969,299.35,83,1,4.32,LR,1673125727
237,la ronge,55.1001,-105.2842,271.19,87,49,2.54,CA,1673126004
238,aquiraz,-3.9014,-38.3911,301.2,77,4,5.8,BR,1673126004
239,chuy,-33.6971,-53.4616,296.85,63,0,6.52,UY,1673126004
240,skibotn,69.3913,20.2679,260.12,91,59,9.46,NO,1673126005
241,penzance,50.1186,-5.5371,283.53,81,89,13.56,GB,1673126005
242,ewa beach,21.3156,-158.0072,300.29,65,0,3.6,US,1673126006
243,namibe,-15.1961,12.1522,295.18,68,89,4.23,AO,1673126006
244,usinsk,65.9939,57.5281,239.01,95,12,3.72,RU,1673126006
245,douglas,41.3,-96.167,275.1,62,100,3.09,US,1673126007
246,butaritari,3.0707,172.7902,300.13,80,29,6.76,KI,1673126007
247,wukari,7.85,9.7833,299.67,19,7,3.45,NG,1673126007
248,caravelas,-17.7125,-39.2481,297.66,91,83,2.75,BR,1673126008
249,atar,20.5169,-13.0499,293.78,18,100,4.78,MR,1673126008
250,hilo,19.7297,-155.09,300.0,64,40,4.12,US,1673126008
251,half moon bay,37.4636,-122.4286,290.12,50,40,10.29,US,1673126008
252,ihosy,-22.4,46.1167,294.6,88,65,1.38,MG,1673126009
253,bandar-e anzali,37.4727,49.4622,283.92,79,82,2.31,IR,1673126009
254,guapiles,10.2159,-83.7866,303.95,55,38,3.08,CR,1673126010
255,puerto lleras,3.0223,-73.4044,300.76,65,97,1.21,CO,1673126010
256,tura,25.5198,90.2201,286.89,45,0,1.76,IN,1673126010
257,mount gambier,-37.8333,140.7667,295.33,41,0,4.2,AU,1673126011
258,kitimat,54.0524,-128.6534,274.21,31,100,0.34,CA,1673126011
259,saint-joseph,-21.3667,55.6167,297.36,80,31,4.61,RE,1673126011
260,talaya,61.3833,152.75,229.42,99,80,0.2,RU,1673126011
261,broome,42.2506,-75.833,276.4,83,100,2.68,US,1673126012
262,hanko,59.8333,22.95,268.74,84,100,10.93,FI,1673126012
263,zhigansk,66.7697,123.3711,242.22,98,100,2.48,RU,1673126013
264,jacareacanga,-6.2222,-57.7528,298.94,91,59,1.12,BR,1673126013
265,carnarvon,-24.8667,113.6333,296.21,62,0,10.83,AU,1673126014
266,atambua,-9.1061,124.8925,295.91,89,100,0.53,ID,1673126014
267,verkhozim,52.7122,45.418,249.82,91,42,4.16,RU,1673126014
268,mezen,65.8522,44.24,241.15,98,10,0.7,RU,1673125813
269,vadso,70.0744,29.7487,262.24,92,100,2.06,NO,1673126015
270,vanimo,-2.6741,141.3028,297.87,90,100,1.56,PG,1673126015
271,cabo san lucas,22.8909,-109.9124,301.76,66,0,1.54,MX,1673126016
272,beira,-19.8436,34.8389,297.17,88,100,5.84,MZ,1673126016
273,pacific grove,36.6177,-121.9166,288.9,59,100,6.71,US,1673126016
274,tateyama,34.9833,139.8667,280.88,61,1,4.2,JP,1673126017
275,haghartsin,40.7761,44.9685,274.21,80,42,2.3,AM,1673126017
276,mackay,-21.15,149.2,298.53,73,80,2.56,AU,1673126018
277,kisangani,0.5167,25.2,296.41,52,17,1.32,CD,1673126018
278,kumluca,36.3703,30.2869,286.0,68,2,2.55,TR,1673126018
279,olinda,-8.0089,-34.8553,301.0,65,40,3.09,BR,1673126019
280,yumen,40.2833,97.2,268.87,32,46,3.92,CN,1673126019
281,mana,5.6592,-53.7767,297.67,89,100,4.79,GF,1673126019
282,sioux lookout,50.1001,-91.917,268.32,84,28,4.68,CA,1673126020
283,ko samui,9.5357,99.9357,298.98,74,95,6.03,TH,1673126020
284,verkhnyaya inta,65.9811,60.3094,236.74,95,17,2.47,RU,1673126020
285,grindavik,63.8424,-22.4338,273.41,80,75,9.26,IS,1673126021
286,bolgatanga,10.7856,-0.8514,300.04,21,10,3.24,GH,1673126021
287,baoro,5.6667,15.9667,296.21,29,100,2.32,CF,1673126021
288,port macquarie,-31.4333,152.9167,293.65,83,81,4.92,AU,1673126022
289,mayo,38.8876,-76.5119,282.87,46,75,4.63,US,1673126022
290,yakeshi,49.2833,120.7333,256.01,98,100,0.96,CN,1673126022
291,capissayan,18.0509,121.8177,293.17,86,74,0.29,PH,1673126022
292,san martin,-33.081,-68.4681,306.76,19,100,6.6,AR,1673126023
293,kaeo,-35.1,173.7833,295.55,97,5,1.18,NZ,1673126023
294,ishigaki,24.3448,124.1572,292.41,64,90,6.95,JP,1673126023
295,toul,48.6667,5.9167,283.6,87,75,7.2,FR,1673126024
296,khatassy,61.9036,129.6383,228.14,99,100,1.46,RU,1673126024
297,san antonio,29.4241,-98.4936,296.97,74,100,2.57,US,1673126024
298,kutum,14.2,24.6667,287.85,24,8,3.06,SD,1673126025
299,san policarpo,12.1791,125.5072,299.23,67,100,7.79,PH,1673126025
300,avarua,-21.2078,-159.775,295.62,85,100,1.41,CK,1673126026
301,auki,-8.7676,160.7034,300.23,82,100,1.98,SB,1673126026
302,cockburn town,21.4612,-71.1419,300.13,65,40,5.66,TC,1673125798
303,arrah,25.5667,84.6667,279.65,47,0,3.51,IN,1673126026
304,upernavik,72.7868,-56.1549,247.21,89,33,4.18,GL,1673126027
305,nakhon si thammarat,8.25,100.0,295.1,93,100,2.66,TH,1673126027
306,alofi,-19.0595,-169.9187,299.65,85,100,9.5,NU,1673126028
307,mahebourg,-20.4081,57.7,298.85,77,16,5.25,MU,1673126028
308,saryg-sep,51.5,95.6,257.51,98,100,0.38,RU,1673126028
309,komsomolskiy,40.4272,71.7189,274.55,80,19,6.17,UZ,1673126028
310,qandala,11.472,49.8728,297.07,77,11,2.08,SO,1673126029
311,lavrentiya,65.5833,-171.0,252.16,97,72,1.76,RU,1673126029
312,xapuri,-10.6517,-68.5044,303.88,52,89,0.99,BR,1673126029
313,verkhnyaya toyma,62.2349,44.9985,243.19,98,9,1.98,RU,1673126030
314,nikolsk,53.7189,46.0712,243.7,99,33,2.36,RU,1673126030
315,vung tau,10.346,107.0843,296.6,80,100,3.12,VN,1673126031
316,scarborough,54.2797,-0.4044,280.91,88,77,4.47,GB,1673125937
317,guerrero negro,27.9769,-114.0611,294.77,35,0,3.36,MX,1673126031
318,nara,34.6851,135.8049,278.98,69,89,1.57,JP,1673126032
319,pevek,69.7008,170.3133,249.26,95,100,2.02,RU,1673126032
320,belyy yar,53.6039,91.3903,262.51,95,98,0.0,RU,1673126033
321,montrose,38.4166,-108.2673,272.29,72,73,0.34,US,1673126033
322,ballina,-28.8667,153.5667,293.16,99,87,5.9,AU,1673126033
323,aripuana,-9.1667,-60.6333,298.84,79,99,0.53,BR,1673126034
324,tulsipur,28.131,82.2973,283.83,33,0,1.98,NP,1673126034
325,whitehorse,60.7161,-135.0538,261.58,85,75,1.03,CA,1673126035
326,fayaoue,-20.65,166.5333,300.92,82,100,9.08,NC,1673126035
327,warri,5.5167,5.75,298.94,84,61,2.47,NG,1673125748
328,amahai,-3.3333,128.9167,299.11,80,100,2.05,ID,1673126036
329,panguna,-6.3164,155.4848,295.61,91,88,1.2,PG,1673126036
330,esperance,-33.8667,121.9,288.04,72,0,1.5,AU,1673126037
331,lagoa,39.05,-27.9833,289.23,89,100,11.18,PT,1673126037
332,lompoc,34.6391,-120.4579,291.4,60,99,7.15,US,1673126038
333,walvis bay,-22.9575,14.5053,291.53,78,0,1.09,NA,1673126038
334,los andes,-32.8337,-70.5983,303.71,37,47,4.48,CL,1673125788
335,aldan,58.6031,125.3894,254.14,97,100,2.21,RU,1673126039
336,lakatoro,-16.0999,167.4164,301.11,80,100,3.58,VU,1673126039
337,dauriya,49.9333,116.8667,254.08,96,73,4.26,RU,1673126039
338,cedar city,37.6775,-113.0619,278.69,61,0,4.63,US,1673126040
339,katsuura,35.1333,140.3,279.77,60,2,4.02,JP,1673126040
340,coquimbo,-29.9533,-71.3436,294.0,73,0,7.2,CL,1673126040
341,poum,-20.2333,164.0167,301.34,85,100,13.55,NC,1673126041
342,kamenka,51.3223,42.7678,254.41,92,43,3.64,RU,1673126041
343,anuradhapura,8.3565,80.4173,294.36,98,96,2.12,LK,1673126041
344,lebu,-37.6167,-73.65,291.11,73,22,3.58,CL,1673126042
345,solwezi,-12.1688,26.3894,289.16,97,98,1.22,ZM,1673126042
346,sidi ali,36.0998,0.4206,284.55,82,1,3.25,DZ,1673126042
347,chicama,-7.8447,-79.1469,292.45,58,75,4.54,PE,1673126043
348,katobu,-4.9408,122.5276,296.74,93,93,0.23,ID,1673126043
349,sao felix do xingu,-6.6447,-51.995,296.48,89,100,0.96,BR,1673126043
350,zhangjiakou,40.81,114.8794,270.15,46,9,2.4,CN,1673125914
351,jaguaquara,-13.5306,-39.9708,294.58,87,100,1.98,BR,1673126044
352,palmas,-10.2128,-48.3603,301.08,74,75,1.03,BR,1673126044
353,portlethen,57.0547,-2.1307,280.08,85,64,11.83,GB,1673126045
354,salym,60.0625,71.4789,255.89,96,100,4.75,RU,1673126045
355,morgan city,29.6994,-91.2068,298.15,64,0,4.63,US,1673126045
356,oktyabrskiy,54.4815,53.471,239.89,100,77,1.62,RU,1673126046
357,boende,-0.2167,20.8667,298.16,50,77,0.95,CD,1673126046
358,nyurba,63.2842,118.3319,245.01,99,100,0.84,RU,1673126046
359,cayenne,4.9333,-52.3333,296.17,88,75,3.09,GF,1673126047
360,vila,42.0304,-8.1588,279.64,94,100,3.75,PT,1673126048
361,lac du bonnet,50.2536,-96.0612,266.79,82,23,5.2,CA,1673126048
362,wiarton,44.7407,-81.1332,268.37,74,100,3.86,CA,1673126049
363,grand gaube,-20.0064,57.6608,298.92,70,5,2.24,MU,1673126029
364,moron,-34.6534,-58.6198,305.82,55,58,5.7,AR,1673126049
365,flin flon,54.7682,-101.865,267.31,92,85,2.38,CA,1673126050
366,ensley,30.5188,-87.2728,295.58,61,0,4.12,US,1673126050
367,mangrol,21.1167,70.1167,296.02,73,0,0.65,IN,1673126051
368,jumla,29.2747,82.1838,276.31,27,0,2.01,NP,1673126051
369,bilma,18.6853,12.9164,292.2,27,37,3.14,NE,1673126052
370,nanchong,30.7951,106.0847,281.54,76,0,1.26,CN,1673126052
371,kudahuvadhoo,2.6708,72.8944,299.88,79,90,7.45,MV,1673126052
372,polson,47.6936,-114.1632,272.31,100,100,0.36,US,1673126053
373,ulaanbaatar,47.9077,106.8832,250.22,77,45,1.0,MN,1673126052
374,kars,40.602,43.095,268.4,68,75,3.6,TR,1673125910
375,beloha,-25.1667,45.05,297.98,80,93,0.59,MG,1673126053
376,richards bay,-28.783,32.0377,292.33,79,57,3.0,ZA,1673126054
377,zigong,29.3416,104.7769,281.85,74,0,0.85,CN,1673125820
378,la orilla,17.9833,-102.2333,301.22,58,0,3.7,MX,1673126055
379,waitati,-45.75,170.5667,288.6,95,3,4.08,NZ,1673126055
380,iqaluit,63.7506,-68.5145,247.42,75,75,1.54,CA,1673126056
381,parabel,58.6978,81.4825,266.11,95,100,3.07,RU,1673126056
382,brigantine,39.4101,-74.3646,281.01,62,20,4.12,US,1673126056
383,gamba,-2.65,10.0,297.83,89,100,1.55,GA,1673126056
384,puerto quijarro,-17.7833,-57.7667,306.91,36,50,2.22,BO,1673126057
385,kurumkan,54.3,110.3,254.08,91,40,2.51,RU,1673126057
386,muros,42.7762,-9.0603,286.31,92,100,8.69,ES,1673126057
387,letlhakane,-21.4167,25.5833,292.18,74,100,8.19,BW,1673126058
388,san patricio,28.017,-97.5169,301.2,66,100,6.04,US,1673126058
389,buala,-8.145,159.5921,301.33,77,100,3.53,SB,1673126058
390,ferme-neuve,46.7001,-75.4493,263.53,81,100,3.51,CA,1673126059
391,lovozero,68.005,35.0117,253.9,92,11,1.14,RU,1673126059
392,lata,40.1629,-8.3327,287.49,97,100,2.54,PT,1673126060
393,kirishi,59.4471,32.0205,252.49,97,93,1.4,RU,1673125924
394,antalaha,-14.9003,50.2788,296.78,90,57,2.44,MG,1673126061
395,petropavlovsk-kamchatskiy,53.0452,158.6483,252.48,71,0,5.0,RU,1673126061
396,port elizabeth,-33.918,25.5701,293.76,92,43,0.89,ZA,1673125977
397,shache,38.4167,77.2406,269.23,42,49,0.93,CN,1673126062
398,ust-tsilma,65.441,52.1498,232.76,100,55,1.28,RU,1673126062
399,san jeronimo,-11.9472,-75.2829,286.63,67,99,2.84,PE,1673126062
400,nemuro,43.3236,145.575,270.39,62,66,2.75,JP,1673126063
401,vysokogornyy,50.1167,139.15,248.19,99,56,1.0,RU,1673126063
402,faya,18.3851,42.4509,282.44,84,1,1.55,SA,1673126064
403,uberaba,-19.7483,-47.9319,293.67,92,100,0.81,BR,1673126064
404,gizo,-8.103,156.8419,301.55,77,92,4.04,SB,1673126065
405,tiszacsege,47.7,21.0,279.04,91,95,2.59,HU,1673126065
406,praia da vitoria,38.7333,-27.0667,289.68,94,100,6.13,PT,1673126065
407,porbandar,21.6422,69.6093,295.69,65,0,2.55,IN,1673126066
408,geraldton,-28.7667,114.6,289.38,82,0,3.6,AU,1673126066
409,casas grandes,30.3667,-107.95,289.51,24,7,2.03,MX,1673126066
410,berlevag,70.8578,29.0864,264.15,80,36,7.1,NO,1673126067
411,svetlyy,54.675,20.1347,274.18,96,100,4.0,RU,1673126067
412,ocos,14.5094,-92.1933,303.25,62,2,4.3,GT,1673126068
413,matay,28.419,30.7792,286.9,50,13,2.3,EG,1673126068
414,botwood,49.1499,-55.3482,270.32,86,100,0.93,CA,1673126069
415,nyazepetrovsk,56.0531,59.6028,241.67,100,93,1.34,RU,1673126069
416,charters towers,-20.1,146.2667,296.82,81,100,3.62,AU,1673126069
417,chabahar,25.2919,60.643,294.53,66,71,1.43,IR,1673126070
418,dubai,25.2582,55.3047,290.31,79,19,0.75,AE,1673125997
419,pergamino,-33.89,-60.5736,309.36,13,3,5.05,AR,1673126071
420,haines junction,60.7522,-137.5108,265.75,94,100,0.7,CA,1673126071
421,bardiyah,31.7561,25.0865,288.1,76,1,3.81,LY,1673126071
422,neuquen,-38.9516,-68.0591,312.09,19,0,2.06,AR,1673126025
423,tuatapere,-46.1333,167.6833,288.38,60,5,2.12,NZ,1673126072
424,csaszar,47.498,18.1427,278.6,96,100,4.1,HU,1673126073
425,turukhansk,65.8167,87.9833,225.89,97,39,1.13,RU,1673126073
426,tilichiki,60.4667,166.1,242.45,92,47,4.66,RU,1673126073
427,hofn,64.2539,-15.2082,274.48,77,100,9.22,IS,1673126073
428,tucuma,-0.1833,-50.05,300.54,74,98,3.99,BR,1673126074
429,kigorobya,1.6162,31.3089,295.42,43,14,1.87,UG,1673126074
430,maniitsoq,65.4167,-52.9,267.51,77,100,3.3,GL,1673126075
431,qunduz,36.729,68.857,282.53,45,73,0.28,AF,1673126075
432,muromtsevo,56.3724,75.2418,271.8,96,100,6.06,RU,1673126076
433,georgiyevka,43.0369,74.7114,273.17,86,100,3.0,KZ,1673126076
434,chastyye,57.2888,54.9728,242.46,100,75,1.37,RU,1673126077
435,whitianga,-36.8333,175.7,295.73,69,40,0.84,NZ,1673126077
436,aberdeen,57.1437,-2.0981,280.48,84,57,11.83,GB,1673126057
437,mount isa,-20.7333,139.5,296.02,100,100,4.12,AU,1673126078
438,mayor pablo lagerenza,-19.9309,-60.7718,308.99,24,63,4.6,PY,1673126078
439,farafangana,-22.8167,47.8333,297.48,90,15,3.46,MG,1673126079
440,viedma,-40.8135,-62.9967,311.43,16,30,11.34,AR,1673125921
441,tawang,27.5833,91.8667,272.02,37,0,3.54,IN,1673126080
442,pizarro,4.9533,-77.366,299.57,82,52,2.89,CO,1673126080
443,giyani,-23.3025,30.7187,290.75,93,100,1.26,ZA,1673126080
444,khandbari,27.3747,87.2039,284.69,40,0,1.94,NP,1673126080
445,birjand,32.8663,59.2211,279.65,67,16,1.02,IR,1673125946
446,slawno,54.3628,16.6789,279.28,93,100,4.6,PL,1673126081
447,navirai,-23.065,-54.1906,297.24,66,100,2.71,BR,1673126081
448,abu dhabi,24.4667,54.3667,292.16,77,0,1.03,AE,1673125841
449,karratha,-20.7377,116.8463,299.32,74,56,9.16,AU,1673126082
450,mragowo,53.8644,21.3051,274.15,98,100,4.22,PL,1673125848
451,marang,5.2056,103.2059,296.98,93,100,2.67,MY,1673126082
452,bud,39.447,-86.1758,277.7,69,0,3.31,US,1673126083
453,ayan,56.45,138.1667,253.58,85,65,2.01,RU,1673126083
454,mount pleasant,32.7941,-79.8626,292.59,50,85,1.79,US,1673126084
455,chernyshevskiy,63.0128,112.4714,248.86,99,100,1.08,RU,1673126084
456,khasan,42.4308,130.6434,267.76,60,12,2.98,RU,1673126085
457,manggar,-2.8833,108.2667,298.75,84,96,3.07,ID,1673126085
458,kununurra,-15.7667,128.7333,299.14,89,2,3.09,AU,1673126086
459,ritchie,-29.038,24.6028,296.2,31,0,3.46,ZA,1673126086
460,manaure,11.7751,-72.4445,302.7,57,59,7.59,CO,1673126086
461,sistranda,63.7256,8.834,276.13,75,100,8.04,NO,1673126087
462,makakilo city,21.3469,-158.0858,299.51,64,0,3.6,US,1673125796
463,macheng,31.1783,115.0319,281.42,44,0,1.47,CN,1673126088
464,vorotynets,56.0603,45.8633,246.67,96,97,2.5,RU,1673126088
465,tommot,58.9564,126.2925,252.89,99,100,0.68,RU,1673126088
466,zyryanka,65.75,150.85,230.57,97,100,1.65,RU,1673126089
467,acarau,-2.8856,-40.12,300.13,74,0,8.07,BR,1673126089
468,nishihara,26.1842,127.7558,286.75,72,20,2.57,JP,1673126089
469,lasa,46.6166,10.7002,275.35,83,44,0.9,IT,1673126090
470,bandrele,-12.9067,45.1914,301.01,74,75,3.6,YT,1673126090
471,leh,34.1667,77.5833,262.24,83,92,1.5,IN,1673126090
472,myskhako,44.6714,37.7433,266.03,55,56,3.87,RU,1673126091
473,concordia,-31.393,-58.0209,309.19,34,40,3.6,AR,1673126049
474,kropotkin,45.4375,40.5756,265.96,52,99,3.44,RU,1673126092
475,tual,-5.6667,132.75,301.05,78,100,4.77,ID,1673126092
476,viesca,25.35,-102.8,299.87,12,0,1.79,MX,1673126092
477,samarai,-10.6167,150.6667,300.94,77,97,1.75,PG,1673126093
478,leninsk,48.7119,45.1994,258.88,77,49,5.24,RU,1673126093
479,chapais,49.7834,-74.8492,256.68,93,100,2.92,CA,1673126094
480,dawlatabad,36.4141,64.9053,284.67,48,69,0.83,AF,1673126094
481,shelburne,44.0787,-80.2041,268.22,89,44,4.98,CA,1673126095
482,dudinka,69.4058,86.1778,238.79,97,100,3.85,RU,1673126095
483,acajutla,13.5928,-89.8275,302.5,50,2,3.81,SV,1673126096
484,porto novo,6.4965,2.6036,298.83,82,37,3.08,BJ,1673126096
485,hongjiang,27.11,109.9956,282.65,60,0,0.58,CN,1673126096
486,arlit,18.7369,7.3853,295.16,21,57,3.94,NE,1673126097
487,sibiti,-3.6819,13.3499,294.34,95,100,0.11,CG,1673126097
488,saint-augustin,51.226,-58.6502,263.99,80,95,0.47,CA,1673126099
489,marquette,46.5333,-87.6335,268.53,84,81,0.96,US,1673126099
490,kloulklubed,7.0419,134.2556,300.72,81,100,5.97,PW,1673126099
491,mbanza-ngungu,-5.25,14.8667,293.4,87,100,0.54,CD,1673126100
492,ngorongoro,-3.2397,35.4875,286.54,65,85,1.41,TZ,1673126100
493,sabha,27.0377,14.4283,284.68,44,6,1.6,LY,1673126101
494,salacgriva,57.7536,24.3581,265.39,80,42,6.34,LV,1673126101
495,gotsu,35.0,132.2167,281.93,65,98,5.11,JP,1673126102
496,krasnoselkup,65.7,82.4667,230.41,99,29,2.44,RU,1673126103
497,olga,43.7444,135.2892,257.29,87,38,2.6,RU,1673126105
498,rio grande,-32.035,-52.0986,300.21,65,16,7.57,BR,1673126105
499,lima,-12.0432,-77.0282,294.29,73,20,5.66,PE,1673126035
500,santa cruz,-17.8,-63.1667,306.18,46,40,4.63,BO,1673126066
501,inyonga,-6.7167,32.0667,291.32,94,100,0.69,TZ,1673126106
502,inhambane,-23.865,35.3833,296.15,89,100,8.21,MZ,1673126107
503,ouro preto do oeste,-10.7481,-62.2158,299.6,90,99,0.43,BR,1673126107
504,quepos,9.4236,-84.1652,300.55,72,26,1.91,CR,1673126108
505,surab,28.4914,66.2585,281.78,48,50,2.34,PK,1673126108
506,coahuayana,18.7333,-103.6833,303.56,48,0,3.21,MX,1673126108
507,otjiwarongo,-20.4637,16.6477,298.21,34,87,2.28,NA,1673126109
508,nelson,-41.2833,173.2833,291.87,71,99,1.79,NZ,1673125893
509,manyana,-23.4,21.7167,297.47,23,20,3.03,BW,1673126109
510,makasar,-5.14,119.4221,298.18,100,40,1.54,ID,1673126110
511,broken hill,-31.95,141.4333,297.52,35,0,4.73,AU,1673126110
512,masyaf,35.0653,36.3406,281.89,83,55,0.72,SY,1673126111
513,nabire,-3.3667,135.4833,297.21,88,99,1.28,ID,1673126112
514,yomou,7.5603,-9.2653,295.99,36,0,0.59,GN,1673126112
515,rantepao,-2.9701,119.8978,292.73,96,100,1.36,ID,1673126113
516,abnub,27.2696,31.1511,286.53,52,44,2.12,EG,1673126113
517,rochegda,62.8,43.25,243.48,97,11,1.71,RU,1673126114
518,korla,41.7597,86.1469,270.63,39,5,2.47,CN,1673126114
519,champerico,14.3,-91.9167,301.5,62,2,4.77,GT,1673126115
520,tessalit,20.1986,1.0114,293.44,13,100,4.32,ML,1673126115
521,karpathos,35.507,27.2132,285.13,82,0,3.6,GR,1673126116
522,ibajay,11.8199,122.162,298.23,79,88,7.14,PH,1673126116
523,morehead,37.2711,-87.1764,286.45,54,43,0.89,US,1673126116
524,sosnovo-ozerskoye,52.5249,111.5418,251.34,98,84,3.19,RU,1673126117
525,kulhudhuffushi,6.6221,73.07,300.04,73,19,3.23,MV,1673126117
526,olafsvik,64.8945,-23.7142,274.79,80,100,15.64,IS,1673126118
527,kariba,-16.5167,28.8,293.67,90,98,1.47,ZW,1673126119
528,havre,49.5833,0.3333,283.34,76,75,7.72,FR,1673126119
529,espanola,35.9911,-106.0806,283.0,31,0,0.89,US,1673126120
530,maragogi,-9.0122,-35.2225,299.07,72,0,4.27,BR,1673126120
531,mahon,39.8885,4.2658,287.46,82,20,8.23,ES,1673126120
532,svetlogorsk,52.6333,29.7333,263.03,68,90,3.85,BY,1673126121
533,carlos chagas,-17.7031,-40.7664,297.84,89,94,3.03,BR,1673126121
534,estreito,-5.7833,-43.25,300.53,63,14,2.7,BR,1673126122
535,raisinghnagar,29.5358,73.4492,283.34,21,39,1.96,IN,1673126123
536,san jose del palmar,4.9742,-76.2283,292.0,94,97,1.19,CO,1673126123
537,dunedin,-45.8742,170.5036,288.6,95,0,5.53,NZ,1673126070
538,pisco,-13.7,-76.2167,296.18,78,0,2.06,PE,1673125984
539,yaan,7.3833,8.5667,301.26,19,4,2.6,NG,1673126124
540,payson,40.0444,-111.7321,278.29,67,91,0.89,US,1673126125
541,galveston,29.3669,-94.9669,301.01,80,0,5.14,US,1673126126
542,pilar do sul,-23.8131,-47.7164,290.5,86,100,4.93,BR,1673126126
543,hong gai,20.956,107.0946,291.1,56,96,1.64,VN,1673126128
544,benicarlo,40.4165,0.4271,284.02,65,10,1.91,ES,1673126128
545,victor harbor,-35.5667,138.6167,299.08,39,0,3.0,AU,1673126128
546,newcastle,-32.9272,151.7765,293.55,81,100,3.09,AU,1673125926
547,santa cruz de tenerife,28.4682,-16.2546,291.33,75,40,1.54,ES,1673125896
548,toamasina,-18.1667,49.3833,298.52,83,48,1.44,MG,1673126129
549,jutai,-5.1833,-68.9,302.11,60,63,2.13,BR,1673126130
550,roald,62.5833,6.1333,285.66,57,75,3.6,NO,1673126130
551,lombardia,19.15,-102.0333,301.62,27,1,2.57,MX,1673126131
552,dwarka,22.2394,68.9678,295.07,68,0,4.47,IN,1673126132
553,aksarka,66.5606,67.7975,232.11,100,56,2.4,RU,1673126132
554,kota bahru,6.1333,102.2386,296.98,93,100,2.47,MY,1673126132
555,soure,-0.7167,-48.5233,299.16,80,100,4.64,BR,1673126133
556,qasigiannguit,68.8193,-51.1922,263.29,92,84,2.4,GL,1673126134
557,kruisfontein,-34.0033,24.7314,292.53,82,16,3.23,ZA,1673126134
558,ullapool,57.8987,-5.1604,276.44,91,52,3.45,GB,1673126134
559,palana,59.1167,159.9667,249.18,89,99,2.83,RU,1673126135
560,zhezkazgan,47.8043,67.7144,274.78,100,100,6.94,KZ,1673126135
561,lagunas,-5.2269,-75.6753,300.95,63,88,1.66,PE,1673126136
562,puerto baquerizo moreno,-0.9,-89.6,296.25,83,34,6.01,EC,1673126137
563,airai,-8.9266,125.4092,288.59,91,100,0.82,TL,1673126137
564,capao bonito,-24.0058,-48.3494,291.31,78,86,4.38,BR,1673126137
565,the pas,53.8251,-101.2541,266.98,92,100,2.46,CA,1673126138
566,sawakin,19.1059,37.3321,295.59,61,50,2.68,SD,1673126138
567,launceston,-41.45,147.1667,289.6,75,100,2.06,AU,1673126139
568,jalu,29.0331,21.5482,288.56,58,91,3.62,LY,1673126140
569,chara,56.9064,118.2631,252.85,85,100,0.91,RU,1673125897
570,newport,51.5877,-2.9984,282.32,86,61,11.07,GB,1673126141
571,olavarria,-36.8927,-60.3225,307.05,33,20,4.79,AR,1673126009
572,rio gallegos,-51.6226,-69.2181,293.18,34,75,6.17,AR,1673126141
573,mehamn,71.0357,27.8492,264.12,73,33,10.29,NO,1673126142
574,korenovsk,45.4686,39.4519,267.15,50,100,3.76,RU,1673126142
575,manuk mangkaw,4.8,119.85,300.36,77,99,3.02,PH,1673126143
576,kalaleh,37.3807,55.4916,278.93,70,0,0.0,IR,1673126143
577,goderich,43.7501,-81.7165,271.43,74,20,4.12,CA,1673126144
578,san rafael,-34.6177,-68.3301,308.31,16,77,9.4,AR,1673126145
579,teya,60.3778,92.6267,251.79,98,100,0.81,RU,1673126145
580,suntar,62.1444,117.6319,247.6,99,100,0.52,RU,1673126146
581,spearfish,44.4908,-103.8594,282.51,40,11,3.13,US,1673126147
582,ejido,8.5514,-71.2375,296.08,80,97,1.32,VE,1673126147
583,khorixas,-20.3667,14.9667,294.97,24,66,4.92,NA,1673126147
584,hualmay,-11.0964,-77.6139,296.52,68,12,4.4,PE,1673126148
585,ambilobe,-13.2,49.05,295.91,92,96,1.33,MG,1673126148
586,huarmey,-10.0681,-78.1522,296.38,71,11,4.05,PE,1673126149
587,eregli,37.5133,34.0467,274.33,60,0,1.48,TR,1673126149
588,isangel,-19.55,169.2667,302.21,79,100,3.09,VU,1673126150
589,sao miguel do araguaia,-13.275,-50.1628,295.63,94,93,1.36,BR,1673126150
590,tskaltubo,42.3254,42.5979,275.67,100,100,2.06,GE,1673126151
